[{"ID": "1-1", "ShopName": "酒座楽縁 輝", "ShopAddr": "大津市馬場2-9-8(2F)", "longitude": 135.8815, "latitude": 35.000252}, {"ID": "1-2", "ShopName": "和食さと 堅田南店", "ShopAddr": "大津市今堅田2-18-1", "longitude": 135.918869, "latitude": 35.123508}, {"ID": "1-3", "ShopName": "大戸屋 フォレオ大津一里山店", "ShopAddr": "大津市一里山7-1-1", "longitude": 135.93364, "latitude": 34.974094}, {"ID": "1-4", "ShopName": "淡海料理 Tovin", "ShopAddr": "大津市浜大津1-4-1旧大津公会堂地下1F", "longitude": 135.865021, "latitude": 35.010815}, {"ID": "1-5", "ShopName": "ラーメン桃李路", "ShopAddr": "大津市鳥居川町8-5", "longitude": 135.901749, "latitude": 34.974075}, {"ID": "1-6", "ShopName": "炙勘助", "ShopAddr": "大津市梅林1-2-2", "longitude": 135.866943, "latitude": 35.003315}, {"ID": "1-7", "ShopName": "和酒ダイニングReborn りぃぼーん", "ShopAddr": "大津市浜大津2-1-17一番街ビル1F", "longitude": 135.862625, "latitude": 35.011066}, {"ID": "1-8", "ShopName": "イタリアンレストラSorriso", "ShopAddr": "大津市国分1-22-67", "longitude": 135.895004, "latitude": 34.966137}, {"ID": "1-9", "ShopName": "酒仙ひむか", "ShopAddr": "大津市末広町3-3", "longitude": 135.863998, "latitude": 35.004677}, {"ID": "1-10", "ShopName": "れすとらん松喜屋", "ShopAddr": "大津市唐橋町14-17", "longitude": 135.903412, "latitude": 34.973949}, {"ID": "1-11", "ShopName": "や台ずし 大津駅前町", "ShopAddr": "大津市末広町2-23", "longitude": 135.863846, "latitude": 35.004234}, {"ID": "1-12", "ShopName": "や台ずし 膳所駅前町", "ShopAddr": "大津市馬場2-6-21", "longitude": 135.880417, "latitude": 35.001106}, {"ID": "1-13", "ShopName": "鶴喜そば 唐崎店", "ShopAddr": "大津市唐崎1-23-1", "longitude": 135.870895, "latitude": 35.046242}, {"ID": "1-14", "ShopName": "鶴喜そば 和労堂店", "ShopAddr": "大津市坂本本町4220", "longitude": 135.852036, "latitude": 35.067127}, {"ID": "1-15", "ShopName": "鶴喜そば 大講堂店", "ShopAddr": "大津市坂本本町4220", "longitude": 135.852036, "latitude": 35.067127}, {"ID": "1-16", "ShopName": "和食さと 瀬田店", "ShopAddr": "大津市一里山1-14-8", "longitude": 135.92868, "latitude": 34.985798}, {"ID": "1-17", "ShopName": "ぎゃれ楽坐", "ShopAddr": "大津市大萱1-17-20マツダビル1F", "longitude": 135.926346, "latitude": 34.986687}, {"ID": "1-18", "ShopName": "和食さと 西大津店", "ShopAddr": "大津市柳が崎4-1", "longitude": 135.865463, "latitude": 35.027267}, {"ID": "1-19", "ShopName": "炭火焼肉 千なり", "ShopAddr": "大津市堅田1-2-33", "longitude": 135.908524, "latitude": 35.106064}, {"ID": "1-20", "ShopName": "有限会社丸二果実店", "ShopAddr": "大津市長等2-10-7", "longitude": 135.861984, "latitude": 35.009266}, {"ID": "1-21", "ShopName": "Pダイニング 浜大津アーカス店", "ShopAddr": "大津市浜大津2-1アーカス2F", "longitude": 135.862625, "latitude": 35.011066}, {"ID": "1-22", "ShopName": "本家つる㐂そば", "ShopAddr": "大津市坂本4-11-40", "longitude": 135.869537, "latitude": 35.07056}, {"ID": "1-23", "ShopName": "とりこう庵", "ShopAddr": "大津市馬場2-6-18森田ビル1F", "longitude": 135.880417, "latitude": 35.001106}, {"ID": "1-24", "ShopName": "大衆割烹じん", "ShopAddr": "大津市真野2-7-50", "longitude": 135.917252, "latitude": 35.123646}, {"ID": "1-25", "ShopName": "近江牛と近江野菜グリル漣", "ShopAddr": "大津市馬場1-14-18ア-クスビル1階C号", "longitude": 135.882996, "latitude": 35.002998}, {"ID": "1-26", "ShopName": "ラー麺 鉄山靠", "ShopAddr": "大津市萱野浦25-1 ALTA萱野浦ビュー", "longitude": 135.910675, "latitude": 34.990715}, {"ID": "1-27", "ShopName": "カフェ白いピアノ", "ShopAddr": "大津市末広町4-2", "longitude": 135.864319, "latitude": 35.005306}, {"ID": "1-28", "ShopName": "びっくりドンキー大津店", "ShopAddr": "大津市におの浜3-1-5イオンタウン内", "longitude": 135.883255, "latitude": 35.00486}, {"ID": "1-29", "ShopName": "サンエトワール膳所", "ShopAddr": "大津市馬場2-11-8", "longitude": 135.881958, "latitude": 34.999096}, {"ID": "1-30", "ShopName": "近江牛 かね吉", "ShopAddr": "大津市馬場1-10-8", "longitude": 135.882187, "latitude": 35.00317}, {"ID": "1-31", "ShopName": "椀向八寸 行楽庵", "ShopAddr": "大津市萱野浦25-1", "longitude": 135.910675, "latitude": 34.990715}, {"ID": "1-32", "ShopName": "つる家(有限会社)", "ShopAddr": "大津市本丸町2-8", "longitude": 135.891602, "latitude": 34.992928}, {"ID": "1-33", "ShopName": "酒菜 わをん", "ShopAddr": "大津市桜野町2-5-8ボナール由建", "longitude": 135.859207, "latitude": 35.025429}, {"ID": "1-34", "ShopName": "湖舟", "ShopAddr": "大津市石山寺3-2-37", "longitude": 135.90802, "latitude": 34.960758}, {"ID": "1-35", "ShopName": "可和文", "ShopAddr": "大津市松原町7-15", "longitude": 135.902359, "latitude": 34.979424}, {"ID": "1-36", "ShopName": "ココス瀬田川店", "ShopAddr": "大津市瀬田1-100", "longitude": 135.909637, "latitude": 34.97646}, {"ID": "1-37", "ShopName": "日本酒BAR十八番(OHAKO)", "ShopAddr": "大津市粟津町2-62 JCOURT101", "longitude": 135.898483, "latitude": 34.979691}, {"ID": "1-38", "ShopName": "あたか飯店", "ShopAddr": "大津市浜大津4-7-8", "longitude": 135.863449, "latitude": 35.012623}, {"ID": "1-39", "ShopName": "道の駅 妹子の郷レストラン", "ShopAddr": "大津市和邇中528", "longitude": 135.904053, "latitude": 35.158543}, {"ID": "1-40", "ShopName": "ケンタッキーフライドチキン イオンスタイル大津京店", "ShopAddr": "大津市皇子が丘3-11-1", "longitude": 135.860123, "latitude": 35.024506}, {"ID": "1-41", "ShopName": "ブラッスリー久仁", "ShopAddr": "大津市梅林1-2-25", "longitude": 135.866943, "latitude": 35.003315}, {"ID": "1-42", "ShopName": "イマムラ キッチン イルクオーレ", "ShopAddr": "大津市粟津8-21", "longitude": 135.900024, "latitude": 34.979401}, {"ID": "1-43", "ShopName": "野洲のおっさんおにぎり食堂", "ShopAddr": "大津市長等2-3-40", "longitude": 135.859573, "latitude": 35.0089}, {"ID": "1-44", "ShopName": "ぶんぷく亭", "ShopAddr": "大津市粟津町7-24", "longitude": 135.901535, "latitude": 34.978298}, {"ID": "1-45", "ShopName": "ブロッコリー", "ShopAddr": "大津市中央1-6-18 森井眼科ビル1F", "longitude": 135.863129, "latitude": 35.009853}, {"ID": "1-46", "ShopName": "COCHIYA", "ShopAddr": "大津市粟津町12-36", "longitude": 135.898773, "latitude": 34.979111}, {"ID": "1-47", "ShopName": "BREZZA ブレッツァ", "ShopAddr": "大津市今堅田2-23-21", "longitude": 135.920731, "latitude": 35.122616}, {"ID": "1-48", "ShopName": "京紫野", "ShopAddr": "大津市日吉台1-19-8", "longitude": 135.877625, "latitude": 35.079952}, {"ID": "1-49", "ShopName": "びっくりドンキー瀬田店", "ShopAddr": "大津市瀬田1-1-1ホームセンターコーナン内", "longitude": 135.91037, "latitude": 34.978409}, {"ID": "1-50", "ShopName": "鉄板焼喜烙亭", "ShopAddr": "大津市梅林1-2-24", "longitude": 135.866943, "latitude": 35.003315}, {"ID": "1-51", "ShopName": "やまつね", "ShopAddr": "大津市今堅田3-21-14", "longitude": 135.92836, "latitude": 35.127014}, {"ID": "1-52", "ShopName": "華いち", "ShopAddr": "大津市粟津町2-55森の雫3F", "longitude": 135.898483, "latitude": 34.979691}, {"ID": "1-53", "ShopName": "㈱王将フードサービス堅田店", "ShopAddr": "大津市本堅田4-16-8", "longitude": 135.917572, "latitude": 35.120327}, {"ID": "1-54", "ShopName": "茶館喫茶去", "ShopAddr": "大津市螢谷4-45", "longitude": 135.904343, "latitude": 34.969486}, {"ID": "1-55", "ShopName": "中華料理 石山飯店", "ShopAddr": "大津市粟津町8-18", "longitude": 135.900879, "latitude": 34.978691}, {"ID": "1-56", "ShopName": "あじ処 乃味芳", "ShopAddr": "大津市松原町14-15", "longitude": 135.902374, "latitude": 34.978168}, {"ID": "1-57", "ShopName": "カレーハウスCoCo壱番屋 大津堅田店", "ShopAddr": "大津市本堅田5-11-1", "longitude": 135.914185, "latitude": 35.11652}, {"ID": "1-58", "ShopName": "カレーハウスCoCo壱番屋 大津におの浜店", "ShopAddr": "大津市におの浜3-1-7", "longitude": 135.883255, "latitude": 35.00486}, {"ID": "1-59", "ShopName": "カレーハウスCoCo壱番屋 大津下阪本店", "ShopAddr": "大津市下阪本3-5-32", "longitude": 135.877258, "latitude": 35.060162}, {"ID": "1-60", "ShopName": "Cessa(セッサ)", "ShopAddr": "大津市浜大津2-1-12ロイヤルビル2F", "longitude": 135.862625, "latitude": 35.011066}, {"ID": "1-61", "ShopName": "カフェ&ゲストハウス あん", "ShopAddr": "大津市中庄2-10-35", "longitude": 135.889709, "latitude": 34.991001}, {"ID": "1-62", "ShopName": "NTT大津ビル食堂", "ShopAddr": "大津市浜大津1-1-26 NTT大津ビル食堂", "longitude": 135.864594, "latitude": 35.01017}, {"ID": "1-63", "ShopName": "MOSS-CAFE NANNAN", "ShopAddr": "大津市木下町17-19", "longitude": 135.890152, "latitude": 35.00132}, {"ID": "1-64", "ShopName": "日本料理 一心", "ShopAddr": "大津市神領3-5-23", "longitude": 135.912476, "latitude": 34.972}, {"ID": "1-65", "ShopName": "やきとりの名門 秋吉大津店", "ShopAddr": "大津市末広町10-2", "longitude": 135.864441, "latitude": 35.004349}, {"ID": "1-66", "ShopName": "レストラン ラ・セリア", "ShopAddr": "大津市下坂本5-2-2", "longitude": 135.883301, "latitude": 35.065327}, {"ID": "1-67", "ShopName": "農家レストラン だいきち", "ShopAddr": "大津市今堅田2-25-11", "longitude": 135.922211, "latitude": 35.123051}, {"ID": "1-68", "ShopName": "中国料理登煌", "ShopAddr": "大津市坂本3-32-27", "longitude": 135.87886, "latitude": 35.069958}, {"ID": "1-69", "ShopName": "芙蓉園 本館", "ShopAddr": "大津市坂本4-5-17", "longitude": 135.867203, "latitude": 35.07021}, {"ID": "1-70", "ShopName": "や台ずし 石山駅前町", "ShopAddr": "大津市粟津町9-27", "longitude": 135.900543, "latitude": 34.978859}, {"ID": "1-71", "ShopName": "クラウン カリー&ケバブ 大津京", "ShopAddr": "大津市二本松1-1ブランチ大津京", "longitude": 135.864716, "latitude": 35.02972}, {"ID": "1-72", "ShopName": "カフェ イル キャピターノ 大津港", "ShopAddr": "大津市浜大津5-1-1", "longitude": 135.865616, "latitude": 35.012848}, {"ID": "1-73", "ShopName": "ビアンカ ホライズン", "ShopAddr": "大津市浜大津5-1-1大津港ビアンカ船内2F", "longitude": 135.865616, "latitude": 35.012848}, {"ID": "1-74", "ShopName": "ビアンカ クラウド", "ShopAddr": "大津市浜大津5-1-1大津港ビアンカ船内3F", "longitude": 135.865616, "latitude": 35.012848}, {"ID": "1-75", "ShopName": "ミシガン3Fスナック", "ShopAddr": "大津市浜大津5-1-1大津港外輪船ミシガン船内3F", "longitude": 135.865616, "latitude": 35.012848}, {"ID": "1-76", "ShopName": "ミシガン2Fホール・カフェ", "ShopAddr": "大津市浜大津5-1-1大津港外輪船ミシガン船内", "longitude": 135.865616, "latitude": 35.012848}, {"ID": "1-77", "ShopName": "ミシガン1Fレストラン", "ShopAddr": "大津市浜大津5-1-1大津港ミシガン内", "longitude": 135.865616, "latitude": 35.012848}, {"ID": "1-78", "ShopName": "和cafe-Hirofusa", "ShopAddr": "大津市本丸町3-7", "longitude": 135.891708, "latitude": 34.992146}, {"ID": "1-79", "ShopName": "鮨匠 いま村", "ShopAddr": "大津市粟津町6-11", "longitude": 135.90152, "latitude": 34.978706}, {"ID": "1-80", "ShopName": "炭火焼肉じろう", "ShopAddr": "大津市真野2-27-8 2F", "longitude": 135.919159, "latitude": 35.1273}, {"ID": "1-81", "ShopName": "鳥貴族 堅田店", "ShopAddr": "大津市今堅田3-11-1スーパーセンターイズミヤ堅田店1F", "longitude": 135.922607, "latitude": 35.126377}, {"ID": "1-82", "ShopName": "megumiレストラン", "ShopAddr": "大津市浜大津5-1-1大津港「megumi」船内", "longitude": 135.865616, "latitude": 35.012848}, {"ID": "1-83", "ShopName": "とんかつ かつ源 大津衣川店", "ShopAddr": "大津市衣川1-1084-1", "longitude": 135.906174, "latitude": 35.10738}, {"ID": "1-84", "ShopName": "らーめん津津 雄琴店", "ShopAddr": "大津市雄琴6-1-37", "longitude": 135.894302, "latitude": 35.087795}, {"ID": "1-85", "ShopName": "清水家", "ShopAddr": "大津市膳所2-1-11", "longitude": 135.888138, "latitude": 34.99577}, {"ID": "1-86", "ShopName": "疏水亭", "ShopAddr": "大津市三井寺町7-18", "longitude": 135.857971, "latitude": 35.012142}, {"ID": "1-87", "ShopName": "ビストロ なかの", "ShopAddr": "大津市今堅田3丁目4-24", "longitude": 135.92662, "latitude": 35.125553}, {"ID": "1-88", "ShopName": "天下一品 堅田店", "ShopAddr": "大津市真野2丁目30-19", "longitude": 135.920959, "latitude": 35.126469}, {"ID": "1-89", "ShopName": "しちの", "ShopAddr": "大津市浜大津2-1-12ロイヤルビル4F", "longitude": 135.862625, "latitude": 35.011066}, {"ID": "1-90", "ShopName": "れすとらん風月", "ShopAddr": "大津市園城寺町246", "longitude": 135.846924, "latitude": 35.00972}, {"ID": "1-91", "ShopName": "ホルモンバクダン", "ShopAddr": "大津市大萱1-7-8アルブ瀬田104", "longitude": 135.924484, "latitude": 34.984741}, {"ID": "1-92", "ShopName": "居酒屋 おふく", "ShopAddr": "大津市浜大津2丁目4-13", "longitude": 135.861923, "latitude": 35.011772}, {"ID": "1-93", "ShopName": "LONG-hu DININGブランチ大津京店", "ShopAddr": "大津市二本松1-1ブランチ大津京内", "longitude": 135.864716, "latitude": 35.02972}, {"ID": "1-94", "ShopName": "佐知’s pocket", "ShopAddr": "大津市小関町7-24", "longitude": 135.853287, "latitude": 35.00721}, {"ID": "1-95", "ShopName": "居酒屋 しげる", "ShopAddr": "大津市大萱1-6-22 ヤマブハイツ106", "longitude": 135.923294, "latitude": 34.984467}, {"ID": "1-96", "ShopName": "びわごち食堂", "ShopAddr": "大津市北比良931-1ジェイホッパーズ琵琶湖ゲストハウス内", "longitude": 135.956879, "latitude": 35.226334}, {"ID": "1-97", "ShopName": "BSCウォータースポーツセンター", "ShopAddr": "大津市南船路4-1", "longitude": 135.91713, "latitude": 35.177288}, {"ID": "1-98", "ShopName": "屋形船四季", "ShopAddr": "大津市松原町18-10 先右岸74.4Km+70m", "longitude": 135.905243, "latitude": 34.977657}, {"ID": "1-99", "ShopName": "豆菜料理はなさび", "ShopAddr": "大津市栄町13-11", "longitude": 135.900528, "latitude": 34.975746}, {"ID": "1-100", "ShopName": "ハピネスビレッジ", "ShopAddr": "大津市長等2-9-17", "longitude": 135.861038, "latitude": 35.009464}, {"ID": "1-101", "ShopName": "天下一品 唐崎店", "ShopAddr": "大津市際川4-15-11", "longitude": 135.871017, "latitude": 35.045055}, {"ID": "1-102", "ShopName": "吾嬬(あづま)", "ShopAddr": "大津市瀬田1-19-31", "longitude": 135.908203, "latitude": 34.974194}, {"ID": "1-103", "ShopName": "レストラン オペラ", "ShopAddr": "大津市打出浜15-1 びわ湖ホール2F", "longitude": 135.87738, "latitude": 35.00491}, {"ID": "1-104", "ShopName": "マタリ", "ShopAddr": "大津市打出浜4-14", "longitude": 135.875763, "latitude": 35.004845}, {"ID": "1-105", "ShopName": "琵琶レイクオーツカ", "ShopAddr": "大津市南小松1054-3", "longitude": 135.960434, "latitude": 35.236809}, {"ID": "1-106", "ShopName": "呑み処 結", "ShopAddr": "大津市今堅田2丁目26-1", "longitude": 135.921021, "latitude": 35.121845}, {"ID": "1-107", "ShopName": "焼とり大吉石山寺店", "ShopAddr": "大津市石山寺4丁目10-2", "longitude": 135.899277, "latitude": 34.955433}, {"ID": "1-108", "ShopName": "Nico", "ShopAddr": "大津市梅林1-3-25 大津駅前第一森田ビル2階(南内室)", "longitude": 135.865463, "latitude": 35.003788}, {"ID": "1-109", "ShopName": "新月", "ShopAddr": "大津市石山寺1-3-3", "longitude": 135.906677, "latitude": 34.961494}, {"ID": "1-110", "ShopName": "レストラン明治亭", "ShopAddr": "大津市際川3-32-30", "longitude": 135.86763, "latitude": 35.043148}, {"ID": "1-111", "ShopName": "かつくら大津店", "ShopAddr": "大津市木下町9-20", "longitude": 135.893265, "latitude": 34.998055}, {"ID": "1-112", "ShopName": "ミライザカ瀬田駅前店", "ShopAddr": "大津市大萱1-13-11スマイルホテル大津瀬田1階", "longitude": 135.92514, "latitude": 34.985592}, {"ID": "1-113", "ShopName": "美味皆快膳所店", "ShopAddr": "大津市馬場1-4-30 スペースVANVAI", "longitude": 135.880554, "latitude": 35.002487}, {"ID": "1-114", "ShopName": "道の駅びわ湖大橋 米プラザレストラン", "ShopAddr": "大津市今堅田3丁目1-1", "longitude": 135.928345, "latitude": 35.125061}, {"ID": "1-115", "ShopName": "一杯呑家 なりぞう", "ShopAddr": "大津市粟津町7-21-103", "longitude": 135.901535, "latitude": 34.978298}, {"ID": "1-116", "ShopName": "そば處 美登路", "ShopAddr": "大津市本堅田3-11-17", "longitude": 135.914032, "latitude": 35.114594}, {"ID": "1-117", "ShopName": "カフェ・ド・シナモニ", "ShopAddr": "大津市皇子が丘3-3-23パレットアトリウム2F", "longitude": 135.858917, "latitude": 35.022598}, {"ID": "1-118", "ShopName": "芙蓉園 別館", "ShopAddr": "大津市坂本5-3-9", "longitude": 135.866165, "latitude": 35.072414}, {"ID": "1-119", "ShopName": "Restaurant Bel van Brugge", "ShopAddr": "大津市柳が崎5-35びわ湖大津館", "longitude": 135.867767, "latitude": 35.026615}, {"ID": "1-120", "ShopName": "ひより 堅田店", "ShopAddr": "大津市今堅田2丁目24-25", "longitude": 135.921326, "latitude": 35.123466}, {"ID": "1-121", "ShopName": "ラーメン藤 大津石山店", "ShopAddr": "大津市粟津町5-17", "longitude": 135.901886, "latitude": 34.978718}, {"ID": "1-122", "ShopName": "天丼･天ぷら本舗 さん天 大津瀬田店", "ShopAddr": "大津市大江2-13-5", "longitude": 135.918915, "latitude": 34.98217}, {"ID": "1-123", "ShopName": "じとっこ組合石山店", "ShopAddr": "大津市粟津町 3-2JR石山駅NKﾋﾞﾙ1F", "longitude": 135.898209, "latitude": 34.980171}, {"ID": "1-124", "ShopName": "浜亭", "ShopAddr": "大津市大萱7丁目8-20", "longitude": 135.916458, "latitude": 34.994194}, {"ID": "1-125", "ShopName": "焼肉ホルモン いち", "ShopAddr": "大津市馬場1-11-2第13森田ビル1F", "longitude": 135.881378, "latitude": 35.002537}, {"ID": "1-126", "ShopName": "Cafe marvel", "ShopAddr": "大津市御陵町5-9", "longitude": 135.855591, "latitude": 35.018932}, {"ID": "1-127", "ShopName": "ココス瀬田唐橋店", "ShopAddr": "大津市唐橋町9", "longitude": 135.904816, "latitude": 34.974777}, {"ID": "1-128", "ShopName": "コミュニティ BAR 美豚", "ShopAddr": "大津市栄町9-20", "longitude": 135.901611, "latitude": 34.976147}, {"ID": "1-129", "ShopName": "仕出し処 忠真", "ShopAddr": "大津市比叡辻1-13-6", "longitude": 135.885284, "latitude": 35.070911}, {"ID": "1-130", "ShopName": "ダイニング 魚石", "ShopAddr": "大津市坂本4-10-59", "longitude": 135.869385, "latitude": 35.069687}, {"ID": "1-131", "ShopName": "地鶏料理 穏座", "ShopAddr": "大津市真野4-9-50", "longitude": 135.917374, "latitude": 35.129986}, {"ID": "1-132", "ShopName": "串カツ永ちゃん", "ShopAddr": "大津市粟津町12-36", "longitude": 135.898773, "latitude": 34.979111}, {"ID": "1-133", "ShopName": "ロッテリア 瀬田駅前店", "ShopAddr": "大津市大萱1‐10‐1", "longitude": 135.925369, "latitude": 34.986427}, {"ID": "1-134", "ShopName": "ココス堅田店", "ShopAddr": "大津市本堅田4-14-7", "longitude": 135.916489, "latitude": 35.118893}, {"ID": "1-135", "ShopName": "mado cafe", "ShopAddr": "大津市島の関14-1 大津市民会館2F", "longitude": 135.869766, "latitude": 35.009552}, {"ID": "1-136", "ShopName": "遊々亭", "ShopAddr": "大津市大津市園城寺町33 圓満院内", "longitude": 135.924637, "latitude": 34.985455}, {"ID": "1-137", "ShopName": "幸盛丸", "ShopAddr": "大津市粟津町9-14", "longitude": 135.900543, "latitude": 34.978859}, {"ID": "1-138", "ShopName": "みんなのカラオケさろん 楽縫喜", "ShopAddr": "大津市大萱1-20-9 第3サンライフ瀬田103", "longitude": 135.928116, "latitude": 34.986469}, {"ID": "1-139", "ShopName": "ワンカルビ西大津", "ShopAddr": "大津市松山町13-14", "longitude": 135.863525, "latitude": 35.026501}, {"ID": "1-140", "ShopName": "ビアンカ ブリーズ", "ShopAddr": "大津市浜大津5-1-1大津港ビアンカ船内4F", "longitude": 135.865616, "latitude": 35.012848}, {"ID": "1-141", "ShopName": "四六時中 西大津店", "ShopAddr": "大津市皇子が丘3-11-1 イオンスタイル大津京4F", "longitude": 135.860123, "latitude": 35.024506}, {"ID": "1-142", "ShopName": "セカンドハウス フォレオ大津一里山店", "ShopAddr": "大津市一里山7-1-1", "longitude": 135.93364, "latitude": 34.974094}, {"ID": "1-143", "ShopName": "八真道", "ShopAddr": "大津市馬場1-11-10", "longitude": 135.881378, "latitude": 35.002537}, {"ID": "1-144", "ShopName": "来来亭 膳所店", "ShopAddr": "大津市馬場2-12-66", "longitude": 135.881409, "latitude": 34.998013}, {"ID": "1-145", "ShopName": "東海道街道商い六代 からっ風", "ShopAddr": "大津市打出浜6-5", "longitude": 135.876587, "latitude": 35.003971}, {"ID": "1-146", "ShopName": "あみ舟料理新近江別館", "ShopAddr": "大津市松原町18ｰ10", "longitude": 135.905243, "latitude": 34.977657}, {"ID": "1-147", "ShopName": "喫茶 びわたん", "ShopAddr": "大津市京町4-1-1 滋賀県庁新館2F 県民サロン内", "longitude": 135.868607, "latitude": 35.004181}, {"ID": "1-148", "ShopName": "近江スエヒロダイニングTheBeefICHIRIYAMA", "ShopAddr": "大津市一里山7-1-1", "longitude": 135.93364, "latitude": 34.974094}, {"ID": "1-149", "ShopName": "居酒屋もりた", "ShopAddr": "大津市錦織2-8-3", "longitude": 135.85524, "latitude": 35.028713}, {"ID": "1-150", "ShopName": "旅館花村", "ShopAddr": "大津市浜大津3-9-5", "longitude": 135.861374, "latitude": 35.012772}, {"ID": "1-151", "ShopName": "華韓倭西 安寿", "ShopAddr": "大津市晴嵐1ー1-10", "longitude": 135.901505, "latitude": 34.980236}, {"ID": "1-152", "ShopName": "フク茶房", "ShopAddr": "大津市粟津町17-5", "longitude": 135.90065, "latitude": 34.977245}, {"ID": "1-153", "ShopName": "OKAKIビエラ大津店", "ShopAddr": "大津市春日町1-3", "longitude": 135.865448, "latitude": 35.003181}, {"ID": "1-154", "ShopName": "味ごよみ柳生", "ShopAddr": "大津市中央1-6-29", "longitude": 135.863129, "latitude": 35.009853}, {"ID": "1-155", "ShopName": "にぎり長次郎 膳所店", "ShopAddr": "大津市におの浜3-1-45", "longitude": 135.883255, "latitude": 35.00486}, {"ID": "1-156", "ShopName": "ラウンジ ほし", "ShopAddr": "大津市浜大津2-5-8 第二国松ビル2F", "longitude": 135.861557, "latitude": 35.012077}, {"ID": "1-157", "ShopName": "京阪カントリー倶楽部レストラン", "ShopAddr": "大津市大石曽束町525", "longitude": 135.88208, "latitude": 34.894283}, {"ID": "1-158", "ShopName": "ファミリーれすとらん ひろせ 寿し正", "ShopAddr": "大津市北小松741-8", "longitude": 135.971756, "latitude": 35.253422}, {"ID": "11-1", "ShopName": "近江今津西友本店", "ShopAddr": "高島市今津町住吉2-1-20", "longitude": 136.0327, "latitude": 35.402134}, {"ID": "11-2", "ShopName": "CAFE AZZURRA(カフェアズーラ)", "ShopAddr": "高島市安曇川町南古賀3-5", "longitude": 135.99382, "latitude": 35.345558}, {"ID": "11-3", "ShopName": "今津サンブリッジホテル", "ShopAddr": "高島市今津町今津1689-2", "longitude": 136.038132, "latitude": 35.404953}, {"ID": "11-4", "ShopName": "高島ワニカフェ", "ShopAddr": "高島市勝野1401びれっじ6", "longitude": 136.012939, "latitude": 35.296902}, {"ID": "11-5", "ShopName": "体験交流センター ゆめの", "ShopAddr": "高島市今津町日置前2435-3", "longitude": 135.999084, "latitude": 35.419514}, {"ID": "11-6", "ShopName": "ペンション メタセコイヤ", "ShopAddr": "高島市マキノ町寺久保699-1", "longitude": 136.043091, "latitude": 35.478558}, {"ID": "11-7", "ShopName": "美松", "ShopAddr": "高島市新旭町藳園1594", "longitude": 136.039383, "latitude": 35.364021}, {"ID": "11-8", "ShopName": "魚仁", "ShopAddr": "高島市安曇川町中央4-1-17", "longitude": 136.017426, "latitude": 35.328903}, {"ID": "11-9", "ShopName": "朽木里山れすとらん「天空」", "ShopAddr": "高島市朽木柏341-3", "longitude": 135.922653, "latitude": 35.33585}, {"ID": "11-10", "ShopName": "道の駅くつき新本陣お食事処「さと」", "ShopAddr": "高島市朽木市場777", "longitude": 135.915802, "latitude": 35.358536}, {"ID": "11-11", "ShopName": "かばたリゾート㈱", "ShopAddr": "高島市新旭町饗󠄀庭1657", "longitude": 136.005035, "latitude": 35.381367}, {"ID": "11-12", "ShopName": "DENBAR以蔵", "ShopAddr": "高島市新旭町北畑818-8", "longitude": 136.040527, "latitude": 35.350513}, {"ID": "11-13", "ShopName": "丸八百貨店", "ShopAddr": "高島市朽木市場838", "longitude": 135.915802, "latitude": 35.358536}, {"ID": "11-14", "ShopName": "酒菜や 阿蔵", "ShopAddr": "高島市新旭町北畑818-10", "longitude": 136.040527, "latitude": 35.350513}, {"ID": "11-15", "ShopName": "どんき~。", "ShopAddr": "高島市勝野1320 びれっじ2号館", "longitude": 136.012253, "latitude": 35.297443}, {"ID": "11-16", "ShopName": "ココスあどがわ店", "ShopAddr": "高島市安曇川町西万木39番地", "longitude": 136.027222, "latitude": 35.331451}, {"ID": "11-17", "ShopName": "白浜荘", "ShopAddr": "高島市安曇川町下小川2300番地1", "longitude": 136.037201, "latitude": 35.305569}, {"ID": "11-18", "ShopName": "ちゃんぽん亭総本家 今津店", "ShopAddr": "高島市新旭町饗󠄀庭4162-1", "longitude": 136.034286, "latitude": 35.386864}, {"ID": "11-19", "ShopName": "わさび", "ShopAddr": "高島市今津町南新保443-85", "longitude": 136.035828, "latitude": 35.409595}, {"ID": "11-20", "ShopName": "レストラン かりん", "ShopAddr": "高島市マキノ町中庄17-1", "longitude": 136.044098, "latitude": 35.443256}, {"ID": "11-21", "ShopName": "喫茶 田風流-dimple-", "ShopAddr": "高島市音羽287-1", "longitude": 136.004608, "latitude": 35.304928}, {"ID": "11-22", "ShopName": "PARADISO(パラディソ)", "ShopAddr": "高島市朽木栃生318−1", "longitude": 135.886353, "latitude": 35.291573}, {"ID": "11-23", "ShopName": "森の交流館(レストラン赤坂平)", "ShopAddr": "高島市今津町深清水2405-1 家族旅行村ビラデスト今津内", "longitude": 136.006805, "latitude": 35.450745}, {"ID": "11-24", "ShopName": "バーベキューの館", "ShopAddr": "高島市今津町深清水2405-1 家族旅行村ビラデスト今津内", "longitude": 136.006805, "latitude": 35.450745}, {"ID": "11-25", "ShopName": "民宿 やまげん", "ShopAddr": "高島市今津町日置前3021", "longitude": 135.997452, "latitude": 35.424191}, {"ID": "11-26", "ShopName": "お食事処 はせ川", "ShopAddr": "高島市朽木村井472", "longitude": 135.89505, "latitude": 35.308449}, {"ID": "11-27", "ShopName": "近江牛 精肉・焼肉レストラン 宝亭本店", "ShopAddr": "高島市朽木宮前坊1033", "longitude": 135.933533, "latitude": 35.349087}, {"ID": "11-28", "ShopName": "お食事処 花音", "ShopAddr": "高島市今津町名小路2-1-6", "longitude": 136.031143, "latitude": 35.398075}, {"ID": "11-29", "ShopName": "フォレストヴィラ夢寿々", "ShopAddr": "高島市マキノ町牧野554-6", "longitude": 136.029053, "latitude": 35.497524}, {"ID": "11-30", "ShopName": "駅前飯店げんぞう", "ShopAddr": "高島市今津町名小路1-6-4", "longitude": 136.031128, "latitude": 35.399155}, {"ID": "11-31", "ShopName": "マキノ白谷温泉八王子荘", "ShopAddr": "高島市マキノ町白谷370-1", "longitude": 136.039673, "latitude": 35.513443}, {"ID": "11-32", "ShopName": "Pizzeria Makino", "ShopAddr": "高島市マキノ町中庄17-2", "longitude": 136.044098, "latitude": 35.443256}, {"ID": "11-33", "ShopName": "ルポゼ・マキノ", "ShopAddr": "高島市マキノ町新保26-1", "longitude": 136.04921, "latitude": 35.445744}, {"ID": "11-34", "ShopName": "味工房 こころ", "ShopAddr": "高島市安曇川町西万木1206-3", "longitude": 136.027267, "latitude": 35.333675}, {"ID": "11-35", "ShopName": "Racine home 針江", "ShopAddr": "高島市新旭町針江235", "longitude": 136.048843, "latitude": 35.364391}, {"ID": "11-36", "ShopName": "chama", "ShopAddr": "高島市新旭町熊野本2-11-14", "longitude": 136.0327, "latitude": 35.360023}, {"ID": "11-37", "ShopName": "Famille", "ShopAddr": "高島市安曇川町四津川642", "longitude": 136.051437, "latitude": 35.316101}, {"ID": "3-1", "ShopName": "神田パーキングエリア下り線", "ShopAddr": "長浜市加田今町字松岡山1-5 北陸自動車道神田PA下り線", "longitude": 136.301147, "latitude": 35.353771}, {"ID": "3-2", "ShopName": "長浜浪漫ビール", "ShopAddr": "長浜市朝日町14-1", "longitude": 136.267776, "latitude": 35.376667}, {"ID": "3-3", "ShopName": "カレーハウスCoCo壱番屋 長浜8号バイパス店", "ShopAddr": "長浜市八幡東町83-1", "longitude": 136.284988, "latitude": 35.381699}, {"ID": "3-4", "ShopName": "佐吉", "ShopAddr": "長浜市西浅井町菅浦234", "longitude": 136.14624, "latitude": 35.455887}, {"ID": "3-5", "ShopName": "居酒屋小間蔵 長浜駅前店", "ShopAddr": "長浜市南呉服町9-30ホテルYes長浜駅前館2F", "longitude": 136.265961, "latitude": 35.379852}, {"ID": "3-6", "ShopName": "LOCO Kitchen", "ShopAddr": "長浜市北船町3-24", "longitude": 136.266251, "latitude": 35.37896}, {"ID": "3-7", "ShopName": "和食さと長浜店", "ShopAddr": "長浜市神照町58-3", "longitude": 136.280853, "latitude": 35.395111}, {"ID": "3-8", "ShopName": "日本料理 住光", "ShopAddr": "長浜市高田町3-19", "longitude": 136.271118, "latitude": 35.379623}, {"ID": "3-9", "ShopName": "パン工房 ポム・ド・テール", "ShopAddr": "長浜市世福寺町11-12", "longitude": 136.275711, "latitude": 35.3811}, {"ID": "3-10", "ShopName": "レストラン おりひめ", "ShopAddr": "長浜市川崎町288", "longitude": 136.28273, "latitude": 35.392082}, {"ID": "3-11", "ShopName": "見付屋", "ShopAddr": "長浜市五村353", "longitude": 136.259842, "latitude": 35.418739}, {"ID": "3-12", "ShopName": "C'courage (シークラージュ)", "ShopAddr": "長浜市祇園町871-33", "longitude": 136.250977, "latitude": 35.385002}, {"ID": "3-13", "ShopName": "プレミアムマルシェBIWAKO", "ShopAddr": "長浜市三和町6-50ヤンマーミュージアム内", "longitude": 136.270737, "latitude": 35.374619}, {"ID": "3-14", "ShopName": "十里街道生活工芸館 テオリア", "ShopAddr": "長浜市神前町1-24", "longitude": 136.270294, "latitude": 35.383492}, {"ID": "3-15", "ShopName": "道の駅 浅井三姉妹の郷", "ShopAddr": "長浜市内保町2843", "longitude": 136.294373, "latitude": 35.427181}, {"ID": "3-16", "ShopName": "夢の小路 良太郎", "ShopAddr": "長浜市元浜町19-12", "longitude": 136.268768, "latitude": 35.382298}, {"ID": "3-17", "ShopName": "焼肉こほくえん", "ShopAddr": "長浜市湖北高田町6-1", "longitude": 136.237244, "latitude": 35.440208}, {"ID": "3-18", "ShopName": "株式会社すし慶", "ShopAddr": "長浜市木之本町木之本988", "longitude": 136.224899, "latitude": 35.507236}, {"ID": "3-19", "ShopName": "牛角 長浜店", "ShopAddr": "長浜市八幡中山町120-7", "longitude": 136.28125, "latitude": 35.393471}, {"ID": "3-20", "ShopName": "お好み焼きはここやねん 長浜店", "ShopAddr": "長浜市八幡中山町479番地", "longitude": 136.277023, "latitude": 35.393234}, {"ID": "3-21", "ShopName": "浜湖月", "ShopAddr": "長浜市公園町4-25", "longitude": 136.259766, "latitude": 35.378666}, {"ID": "3-22", "ShopName": "北ビワコホテルグラツィエ カフェ・ピッツェリア ヴェローナ", "ShopAddr": "長浜市港町4-17", "longitude": 136.263733, "latitude": 35.373604}, {"ID": "3-23", "ShopName": "ちゃんぽん亭 高月店", "ShopAddr": "長浜市高月町井口1410-1", "longitude": 136.234756, "latitude": 35.488232}, {"ID": "3-24", "ShopName": "レストラン余呉湖", "ShopAddr": "長浜市余呉町川並261-1", "longitude": 136.185806, "latitude": 35.520855}, {"ID": "3-25", "ShopName": "北ビワコホテルグラツィエ 日本料理レストラン竹生島", "ShopAddr": "長浜市港町4-17", "longitude": 136.263733, "latitude": 35.373604}, {"ID": "3-26", "ShopName": "北ビワコホテルグラツィエ イタリア料理  ﾚｽﾄﾗﾝ ﾗ･ｽﾋﾟｱｯｼﾞｬ", "ShopAddr": "長浜市港町4-17", "longitude": 136.263733, "latitude": 35.373604}, {"ID": "3-27", "ShopName": "飲茶食坊萬華郷", "ShopAddr": "長浜市元浜町21-36", "longitude": 136.267868, "latitude": 35.382397}, {"ID": "3-28", "ShopName": "天下一品 長浜店", "ShopAddr": "長浜市小堀町399", "longitude": 136.284439, "latitude": 35.387794}, {"ID": "3-29", "ShopName": "黒壁十八號館 96CAFE", "ShopAddr": "長浜市元浜町11番28号", "longitude": 136.266556, "latitude": 35.381054}, {"ID": "3-30", "ShopName": "お酒菜処 季咲", "ShopAddr": "長浜市朝日町9-4プロムナード1F", "longitude": 136.270065, "latitude": 35.378681}, {"ID": "3-31", "ShopName": "旬菜懐石と創作一品 わ田作", "ShopAddr": "長浜市大戌玄町1283", "longitude": 136.287064, "latitude": 35.369106}, {"ID": "3-32", "ShopName": "エベーヌ長浜病院前店", "ShopAddr": "長浜市大戌亥町1282-2", "longitude": 136.284897, "latitude": 35.369381}, {"ID": "3-33", "ShopName": "うを吉", "ShopAddr": "長浜市湖北町尾上287-1", "longitude": 136.188461, "latitude": 35.448105}, {"ID": "3-34", "ShopName": "Ruisseau", "ShopAddr": "長浜市八幡東町626-4 2F", "longitude": 136.278168, "latitude": 35.381004}, {"ID": "3-35", "ShopName": "湖北ノ空 二人ノ宿 きひろ", "ShopAddr": "長浜市湖北町尾上313-13", "longitude": 136.189102, "latitude": 35.447342}, {"ID": "3-36", "ShopName": "長濱迎賓館", "ShopAddr": "長浜市北船町1-5JR長浜駅ビル", "longitude": 136.265625, "latitude": 35.377769}, {"ID": "3-37", "ShopName": "須賀谷温泉 宴会場", "ShopAddr": "長浜市須賀谷町36", "longitude": 136.282883, "latitude": 35.452869}, {"ID": "3-38", "ShopName": "焼肉 ほくと", "ShopAddr": "長浜市平方町252-2", "longitude": 136.278214, "latitude": 35.370697}, {"ID": "3-39", "ShopName": "はま寿司長浜店", "ShopAddr": "長浜市分木町4-33", "longitude": 136.26886, "latitude": 35.389435}, {"ID": "3-40", "ShopName": "グリーンホテルYes長浜 みなと館 みなとやキッチン", "ShopAddr": "長浜市港町2-28", "longitude": 136.265778, "latitude": 35.375271}, {"ID": "3-41", "ShopName": "なや善", "ShopAddr": "長浜市瓜生町150-1", "longitude": 136.290298, "latitude": 35.453102}, {"ID": "3-42", "ShopName": "ココス長浜店", "ShopAddr": "長浜市八幡中山町148", "longitude": 136.27977, "latitude": 35.392567}, {"ID": "3-43", "ShopName": "海座長浜店", "ShopAddr": "長浜市八幡中山町字榎木塚466-1", "longitude": 136.273758, "latitude": 35.390675}, {"ID": "3-44", "ShopName": "和食麺処サガミ長浜店", "ShopAddr": "長浜市勝町108", "longitude": 136.286743, "latitude": 35.375641}, {"ID": "3-45", "ShopName": "手打そば夢創庵", "ShopAddr": "長浜市木之本町木之本920", "longitude": 136.23053, "latitude": 35.512486}, {"ID": "3-46", "ShopName": "らーめん世界 長浜店", "ShopAddr": "長浜市神照町四反田47-4", "longitude": 136.279144, "latitude": 35.399437}, {"ID": "3-47", "ShopName": "大王", "ShopAddr": "長浜市内保町1038-1", "longitude": 136.294342, "latitude": 35.429821}, {"ID": "3-48", "ShopName": "せんなり亭 麺匠 華豊庵", "ShopAddr": "長浜市元浜町8-12", "longitude": 136.266846, "latitude": 35.380028}, {"ID": "3-49", "ShopName": "せんなり亭近江肉 橙", "ShopAddr": "長浜市元浜町11-32", "longitude": 136.266556, "latitude": 35.381054}, {"ID": "13-1", "ShopName": "四季彩料理月うさぎ", "ShopAddr": "米原市加勢野519", "longitude": 136.359512, "latitude": 35.369144}, {"ID": "13-2", "ShopName": "四季彩工房ゆるり", "ShopAddr": "米原市下多良2-63セリマンション107", "longitude": 136.286285, "latitude": 35.312943}, {"ID": "13-3", "ShopName": "伊吹野", "ShopAddr": "米原市伊吹516", "longitude": 136.371246, "latitude": 35.396786}, {"ID": "13-4", "ShopName": "café du MBF", "ShopAddr": "米原市米原661-6", "longitude": 136.294373, "latitude": 35.315899}, {"ID": "13-5", "ShopName": "有限会社若いぶき", "ShopAddr": "米原市伊吹1840", "longitude": 136.372711, "latitude": 35.397308}, {"ID": "13-6", "ShopName": "MAGATANIA(マガタニア)", "ShopAddr": "米原市曲谷926番地 石臼荘", "longitude": 136.34938, "latitude": 35.477013}, {"ID": "13-7", "ShopName": "醒井楼", "ShopAddr": "米原市上丹生2054", "longitude": 136.333206, "latitude": 35.298195}, {"ID": "13-8", "ShopName": "カフェドロップハウス", "ShopAddr": "米原市下多良2-137 文化産業交流会館内", "longitude": 136.28389, "latitude": 35.313961}, {"ID": "13-9", "ShopName": "山形屋 食堂", "ShopAddr": "米原市一色1141", "longitude": 136.360596, "latitude": 35.335915}, {"ID": "2-1", "ShopName": "カレーハウスCoCo壱番屋 彦根中藪店", "ShopAddr": "彦根市中薮町601", "longitude": 136.245178, "latitude": 35.267784}, {"ID": "2-2", "ShopName": "や台ずし 彦根駅前町", "ShopAddr": "彦根市大東町2-35ビジネスホテル近江1F", "longitude": 136.262146, "latitude": 35.272259}, {"ID": "2-3", "ShopName": "銀水", "ShopAddr": "彦根市旭町9-5", "longitude": 136.262451, "latitude": 35.272968}, {"ID": "2-4", "ShopName": "居酒屋 翠翔彦根本店", "ShopAddr": "彦根市本町1-1-5", "longitude": 136.252563, "latitude": 35.271694}, {"ID": "2-5", "ShopName": "有限会社かどや", "ShopAddr": "彦根市清崎町747-4", "longitude": 136.217133, "latitude": 35.229252}, {"ID": "2-6", "ShopName": "サガミ彦根店", "ShopAddr": "彦根市中薮町612-2", "longitude": 136.245178, "latitude": 35.267784}, {"ID": "2-7", "ShopName": "和食さと南彦根店", "ShopAddr": "彦根市東沼波町484-1", "longitude": 136.26329, "latitude": 35.249828}, {"ID": "2-8", "ShopName": "ひこね多幸屋 平和堂日夏店", "ShopAddr": "彦根市日夏町3703-1", "longitude": 136.220566, "latitude": 35.231014}, {"ID": "2-9", "ShopName": "ホルモン焼肉 一休亭元", "ShopAddr": "彦根市旭町9-6ステーションビル1F", "longitude": 136.262451, "latitude": 35.272968}, {"ID": "2-10", "ShopName": "ラーメンまこと屋 彦根ベルロード店", "ShopAddr": "彦根市長曽根南町458-1", "longitude": 136.2435, "latitude": 35.264587}, {"ID": "2-11", "ShopName": "Cocotte", "ShopAddr": "彦根市本町1丁目7番35号", "longitude": 136.251556, "latitude": 35.270348}, {"ID": "2-12", "ShopName": "魚清", "ShopAddr": "彦根市須越町196-2", "longitude": 136.201202, "latitude": 35.250095}, {"ID": "2-13", "ShopName": "近江牛レストラン千成亭", "ShopAddr": "彦根市戸賀町120-4", "longitude": 136.237442, "latitude": 35.25441}, {"ID": "2-14", "ShopName": "はま寿司彦根戸賀店", "ShopAddr": "彦根市戸賀町156-1", "longitude": 136.240524, "latitude": 35.25383}, {"ID": "2-15", "ShopName": "三休亭", "ShopAddr": "彦根市後三条町488-4", "longitude": 136.247742, "latitude": 35.263897}, {"ID": "2-16", "ShopName": "ル・セルポワヴル", "ShopAddr": "彦根市松原町3428-5 ラフェスタ彦根1F", "longitude": 136.25589, "latitude": 35.285854}, {"ID": "2-17", "ShopName": "せんなり亭 伽羅", "ShopAddr": "彦根市本町2丁目1-7", "longitude": 136.251221, "latitude": 35.272461}, {"ID": "2-18", "ShopName": "麺・食処 八千代", "ShopAddr": "彦根市旭町9-1", "longitude": 136.262451, "latitude": 35.272968}, {"ID": "2-19", "ShopName": "双葉荘", "ShopAddr": "彦根市松原町1377", "longitude": 136.258301, "latitude": 35.296947}, {"ID": "2-20", "ShopName": "せんなり亭 心華房", "ShopAddr": "彦根市本町1-1-26 2F", "longitude": 136.252563, "latitude": 35.271694}, {"ID": "2-21", "ShopName": "ポムダムール", "ShopAddr": "彦根市立花町2-8", "longitude": 136.255859, "latitude": 35.272175}, {"ID": "2-22", "ShopName": "豚人なかまる彦根店", "ShopAddr": "彦根市東沼波町181‐2", "longitude": 136.265991, "latitude": 35.255344}, {"ID": "2-23", "ShopName": "千成亭別館 華見", "ShopAddr": "彦根市河原2-2-25", "longitude": 136.254532, "latitude": 35.265434}, {"ID": "2-24", "ShopName": "zuiho jr.cafe", "ShopAddr": "彦根市旭町7-23", "longitude": 136.261688, "latitude": 35.273155}, {"ID": "2-25", "ShopName": "Clap dining", "ShopAddr": "彦根市八坂町2964-3", "longitude": 136.217636, "latitude": 35.261799}, {"ID": "2-26", "ShopName": "凜屋珈琲舎 彦根店", "ShopAddr": "彦根市西今町965", "longitude": 136.235733, "latitude": 35.254505}, {"ID": "2-27", "ShopName": "すき焼きうどん にし川", "ShopAddr": "彦根市本町1-8-28", "longitude": 136.251648, "latitude": 35.269432}, {"ID": "2-28", "ShopName": "お食事処つるつる", "ShopAddr": "彦根市松原町1250-5", "longitude": 136.255157, "latitude": 35.291725}, {"ID": "2-29", "ShopName": "ジルモーリオ・ディ・バンブ", "ShopAddr": "彦根市本町1-12-11", "longitude": 136.250854, "latitude": 35.269451}, {"ID": "2-30", "ShopName": "酒々波々屋", "ShopAddr": "彦根市佐和町11-9", "longitude": 136.260818, "latitude": 35.272011}, {"ID": "2-31", "ShopName": "株式会社 一休亭", "ShopAddr": "彦根市外町6", "longitude": 136.264999, "latitude": 35.266094}, {"ID": "2-32", "ShopName": "ジュブリルタンカフェ", "ShopAddr": "彦根市松原町1435-83", "longitude": 136.25531, "latitude": 35.299023}, {"ID": "2-33", "ShopName": "樂座", "ShopAddr": "彦根市本町1-12-10", "longitude": 136.250854, "latitude": 35.269451}, {"ID": "2-34", "ShopName": "中国料理 龍鱗 彦根本店", "ShopAddr": "彦根市旭町9-11 石原ビル5F", "longitude": 136.262451, "latitude": 35.272968}, {"ID": "2-35", "ShopName": "くつろぎDINING 風花", "ShopAddr": "彦根市肥田町1010-1", "longitude": 136.200638, "latitude": 35.203339}, {"ID": "2-36", "ShopName": "ELSOL", "ShopAddr": "彦根市本町2-1-15", "longitude": 136.251221, "latitude": 35.272461}, {"ID": "2-37", "ShopName": "すし処海座本店", "ShopAddr": "彦根市大藪町越地1-7", "longitude": 136.232666, "latitude": 35.268074}, {"ID": "2-38", "ShopName": "焼肉ダイニング 千乃房", "ShopAddr": "彦根市本町1-11-25", "longitude": 136.251465, "latitude": 35.269081}, {"ID": "2-39", "ShopName": "美濠カフェ", "ShopAddr": "彦根市本町1-2-33", "longitude": 136.253952, "latitude": 35.271332}, {"ID": "2-40", "ShopName": "ココス彦根インター店", "ShopAddr": "彦根市原町平野486-2", "longitude": 136.27887, "latitude": 35.260529}, {"ID": "2-41", "ShopName": "ココスレイクサイド店", "ShopAddr": "彦根市松原町網代口1435-86", "longitude": 136.260925, "latitude": 35.288818}, {"ID": "2-42", "ShopName": "ブロンコビリー彦根店", "ShopAddr": "彦根市里根町23-8", "longitude": 136.265945, "latitude": 35.270313}, {"ID": "2-43", "ShopName": "道とん堀 彦根ベルロード店", "ShopAddr": "彦根市後三条町721", "longitude": 136.243881, "latitude": 35.26614}, {"ID": "2-44", "ShopName": "DINER-POP", "ShopAddr": "彦根市松原町1359", "longitude": 136.251663, "latitude": 35.288982}, {"ID": "2-45", "ShopName": "近江牛黒毛和牛専門店 一休", "ShopAddr": "彦根市長曽根南町483-2", "longitude": 136.243011, "latitude": 35.263329}, {"ID": "2-46", "ShopName": "比内地鶏ほっこりや", "ShopAddr": "彦根市本町2-2-11", "longitude": 136.250931, "latitude": 35.271732}, {"ID": "2-47", "ShopName": "中華そば さくら亭", "ShopAddr": "彦根市本町1-7-34ひこね食賓館1F", "longitude": 136.251556, "latitude": 35.270348}, {"ID": "2-48", "ShopName": "ココス大藪店", "ShopAddr": "彦根市平田町256", "longitude": 136.241669, "latitude": 35.260773}, {"ID": "2-49", "ShopName": "Milky", "ShopAddr": "彦根市河原町2-2-16", "longitude": 136.257034, "latitude": 35.262924}, {"ID": "2-50", "ShopName": "伝五郎 彦根ベルロード店", "ShopAddr": "彦根市平田町435-2", "longitude": 136.239594, "latitude": 35.259438}, {"ID": "2-51", "ShopName": "やす井", "ShopAddr": "彦根市安清町13-26", "longitude": 136.258362, "latitude": 35.26487}, {"ID": "16-1", "ShopName": "株式会社香凛舎", "ShopAddr": "愛知郡愛荘町愛知川40-7", "longitude": 136.214554, "latitude": 35.16935}, {"ID": "16-2", "ShopName": "アジアン", "ShopAddr": "愛知郡愛荘町安孫子700-1", "longitude": 136.245117, "latitude": 35.172264}, {"ID": "16-3", "ShopName": "うを惣", "ShopAddr": "愛知郡愛荘町長野826-3", "longitude": 136.208374, "latitude": 35.179832}, {"ID": "16-4", "ShopName": "日本料理竹平楼", "ShopAddr": "愛知郡愛荘町愛知川1608", "longitude": 136.206619, "latitude": 35.169315}, {"ID": "16-5", "ShopName": "日本料理魚与", "ShopAddr": "愛知郡愛荘町蚊野1705", "longitude": 136.259613, "latitude": 35.169331}, {"ID": "16-6", "ShopName": "焼肉ホルモン肉正", "ShopAddr": "愛知郡愛荘町沓掛380", "longitude": 136.212112, "latitude": 35.179764}, {"ID": "16-7", "ShopName": "湖東三山館あいしょう 香貴丸", "ShopAddr": "愛知郡愛荘町松尾寺1395-1 湖東三山館あいしょう内", "longitude": 136.286102, "latitude": 35.154751}, {"ID": "17-1", "ShopName": "豊辰", "ShopAddr": "犬上郡豊郷町石畑455", "longitude": 136.232437, "latitude": 35.201439}, {"ID": "17-2", "ShopName": "ビジネスホテルくらま 金剛", "ShopAddr": "犬上郡豊郷町安食西920-2", "longitude": 136.223785, "latitude": 35.213524}, {"ID": "17-3", "ShopName": "海鮮天ぷら紬屋", "ShopAddr": "犬上郡豊郷町安食西838-1", "longitude": 136.225739, "latitude": 35.211372}, {"ID": "18-1", "ShopName": "ゆずのだいどこ", "ShopAddr": "犬上郡甲良町長寺 714番地4", "longitude": 136.272079, "latitude": 35.185654}, {"ID": "19-1", "ShopName": "はまてつ食堂", "ShopAddr": "犬上郡多賀町多賀620-1", "longitude": 136.289261, "latitude": 35.224972}, {"ID": "4-1", "ShopName": "だもん亭", "ShopAddr": "近江八幡市新町4-10", "longitude": 136.090866, "latitude": 35.136513}, {"ID": "4-2", "ShopName": "近江焼肉ホルモンすだく 近江八幡駅前店", "ShopAddr": "近江八幡市鷹飼町572Emill近江八幡壱番館1F", "longitude": 136.1017, "latitude": 35.122707}, {"ID": "4-3", "ShopName": "カレーハウスCoCo壱番屋 近江八幡サウスモール店", "ShopAddr": "近江八幡市上田町1278-3", "longitude": 136.108246, "latitude": 35.116196}, {"ID": "4-4", "ShopName": "Restaurant himawari", "ShopAddr": "近江八幡市加茂町3652-5", "longitude": 136.066422, "latitude": 35.121086}, {"ID": "4-5", "ShopName": "和食さと 近江八幡店", "ShopAddr": "近江八幡市東川町139-1", "longitude": 136.104431, "latitude": 35.099472}, {"ID": "4-6", "ShopName": "かん家", "ShopAddr": "近江八幡市鷹飼町454-7 鳥居ビル101", "longitude": 136.099045, "latitude": 35.122578}, {"ID": "4-7", "ShopName": "天下一品 近江八幡店", "ShopAddr": "近江八幡市東川町143-3", "longitude": 136.104996, "latitude": 35.098545}, {"ID": "4-8", "ShopName": "frere+", "ShopAddr": "近江八幡市鷹飼町1553 イーストビル102", "longitude": 136.100494, "latitude": 35.125366}, {"ID": "4-9", "ShopName": "サロンすーちゃん", "ShopAddr": "近江八幡市上野町 124-1", "longitude": 136.073044, "latitude": 35.101097}, {"ID": "4-10", "ShopName": "や台ずし 近江八幡駅北口町", "ShopAddr": "近江八幡市鷹飼町1520", "longitude": 136.100342, "latitude": 35.124615}, {"ID": "4-11", "ShopName": "YUGEYA (ユゲヤ)", "ShopAddr": "近江八幡市中村町20-19", "longitude": 136.097183, "latitude": 35.126171}, {"ID": "4-12", "ShopName": "中国料理沙羅", "ShopAddr": "近江八幡市西庄町 2036-1", "longitude": 136.111237, "latitude": 35.137215}, {"ID": "4-13", "ShopName": "ホテルニューオウミ 近江牛鉄板焼 伊ぶき", "ShopAddr": "近江八幡市鷹飼町1481ホテルニューオウミ9F", "longitude": 136.103287, "latitude": 35.124298}, {"ID": "4-14", "ShopName": "ホテルニューオウミ 日本料理 八万ぼり", "ShopAddr": "近江八幡市鷹飼町1481ホテルニューオウミ1F", "longitude": 136.103287, "latitude": 35.124298}, {"ID": "4-15", "ShopName": "ホテルニューオウミ 中国料理 桂林", "ShopAddr": "近江八幡市鷹飼町1481ホテルニューオウミB1F", "longitude": 136.103287, "latitude": 35.124298}, {"ID": "4-16", "ShopName": "ホテルニューオウミ 宴会部門", "ShopAddr": "近江八幡市鷹飼町1481ホテルニューオウミ2F", "longitude": 136.103287, "latitude": 35.124298}, {"ID": "4-17", "ShopName": "ホテルニューオウミ ガーデンラウンジ", "ShopAddr": "近江八幡市鷹飼町1481ホテルニューオウミ", "longitude": 136.103287, "latitude": 35.124298}, {"ID": "4-18", "ShopName": "BRASSERIE épattache", "ShopAddr": "近江八幡市宮内町 188-8", "longitude": 136.087173, "latitude": 35.14053}, {"ID": "4-19", "ShopName": "珈琲館 近江八幡店", "ShopAddr": "近江八幡市鷹飼町500-3 イオン近江八幡2F", "longitude": 136.105087, "latitude": 35.118141}, {"ID": "4-20", "ShopName": "日牟禮茶屋", "ShopAddr": "近江八幡市宮内町日牟禮ヴィレッジ", "longitude": 136.085342, "latitude": 35.141968}, {"ID": "4-21", "ShopName": "ココス近江八幡店", "ShopAddr": "近江八幡市鷹飼町453-2", "longitude": 136.09845, "latitude": 35.121593}, {"ID": "4-22", "ShopName": "HAKO TE AKO", "ShopAddr": "近江八幡市円山町610", "longitude": 136.097198, "latitude": 35.160423}, {"ID": "4-23", "ShopName": "明治橋茶屋 あまな", "ShopAddr": "近江八幡市大杉町32", "longitude": 136.089172, "latitude": 35.139286}, {"ID": "4-24", "ShopName": "日牟禮カフェ", "ShopAddr": "近江八幡市宮内町日牟禮ヴィレッジ", "longitude": 136.085342, "latitude": 35.141968}, {"ID": "4-25", "ShopName": "凜じろう", "ShopAddr": "近江八幡市音羽町26", "longitude": 136.103271, "latitude": 35.134987}, {"ID": "4-26", "ShopName": "焼肉 吉桃", "ShopAddr": "近江八幡市安土町香庄339-1", "longitude": 136.121704, "latitude": 35.143528}, {"ID": "4-27", "ShopName": "お好み焼はここやねん 近江八幡店", "ShopAddr": "近江八幡市鷹飼町1400-11", "longitude": 136.103958, "latitude": 35.133339}, {"ID": "4-28", "ShopName": "ラコリーナ カステラカフェ", "ShopAddr": "近江八幡市北之庄町615-1", "longitude": 136.094879, "latitude": 35.149418}, {"ID": "4-29", "ShopName": "伝五郎近江八幡店", "ShopAddr": "近江八幡市鷹飼町北1-9-12", "longitude": 136.106308, "latitude": 35.128502}, {"ID": "4-30", "ShopName": "すいれん", "ShopAddr": "近江八幡市鷹飼町559", "longitude": 136.100861, "latitude": 35.12368}, {"ID": "4-31", "ShopName": "Bakery & Cafe KiKi", "ShopAddr": "近江八幡市多賀町378-1", "longitude": 136.095078, "latitude": 35.144093}, {"ID": "4-32", "ShopName": "ラコリーナ メインショップカフェ", "ShopAddr": "近江八幡市北之庄町615-1", "longitude": 136.094879, "latitude": 35.149418}, {"ID": "4-33", "ShopName": "ビジネス第一ホテル", "ShopAddr": "近江八幡市白鳥町48-9", "longitude": 136.098114, "latitude": 35.120525}, {"ID": "4-34", "ShopName": "近江牛創作料理 久ぼ多屋", "ShopAddr": "近江八幡市仲屋町中14番地", "longitude": 136.092667, "latitude": 35.138542}, {"ID": "4-35", "ShopName": "海座 近江八幡店", "ShopAddr": "近江八幡市鷹飼町北3-1-6", "longitude": 136.106934, "latitude": 35.13129}, {"ID": "4-36", "ShopName": "旬菜旬魚 煌", "ShopAddr": "近江八幡市上田町978‐8", "longitude": 136.105896, "latitude": 35.114796}, {"ID": "4-37", "ShopName": "風風ラーメンアクア21店", "ShopAddr": "近江八幡市鷹飼町179", "longitude": 136.105011, "latitude": 35.120087}, {"ID": "4-38", "ShopName": "ステーキ宮 近江八幡店", "ShopAddr": "近江八幡市鷹飼町北3-7-4", "longitude": 136.106461, "latitude": 35.130146}, {"ID": "4-39", "ShopName": "旬肴庵 紅", "ShopAddr": "近江八幡市鷹飼町572エミール壱番館1F", "longitude": 136.1017, "latitude": 35.122707}, {"ID": "4-40", "ShopName": "楽振", "ShopAddr": "近江八幡市浅小井町2922", "longitude": 136.110703, "latitude": 35.146023}, {"ID": "4-41", "ShopName": "日本料理 ひょうたんや", "ShopAddr": "近江八幡市鷹飼町560-1", "longitude": 136.100861, "latitude": 35.12368}, {"ID": "4-42", "ShopName": "レストラン ティファニー", "ShopAddr": "近江八幡市鷹飼町558 (2F", "longitude": 139.857681, "latitude": 36.073669}, {"ID": "4-43", "ShopName": "近江牛 霜月 近江八幡本店", "ShopAddr": "近江八幡市出町314-2", "longitude": 136.1008, "latitude": 35.126724}, {"ID": "4-44", "ShopName": "サガミ近江八幡店", "ShopAddr": "近江八幡市出町456", "longitude": 136.095901, "latitude": 35.132195}, {"ID": "4-45", "ShopName": "和食・旬菜 彩華", "ShopAddr": "近江八幡市出町416-4", "longitude": 136.100784, "latitude": 35.128151}, {"ID": "4-46", "ShopName": "近江牛焼肉すき焼き池もと", "ShopAddr": "近江八幡市安土町桑実寺488-1", "longitude": 136.153854, "latitude": 35.143757}, {"ID": "12-1", "ShopName": "日本料理 魚繁大王殿", "ShopAddr": "東近江市小脇町2321", "longitude": 136.181763, "latitude": 35.108109}, {"ID": "12-2", "ShopName": "ABARIS", "ShopAddr": "東近江市躰光寺町428-3", "longitude": 136.16066, "latitude": 35.185711}, {"ID": "12-3", "ShopName": "カレーハウスCoCo壱番屋 八日市春日町店", "ShopAddr": "東近江市春日町3-2", "longitude": 136.208038, "latitude": 35.106632}, {"ID": "12-4", "ShopName": "カレーハウスCoCo壱番屋 東近江五個荘店", "ShopAddr": "東近江市五個荘中町131-1", "longitude": 136.197327, "latitude": 35.160522}, {"ID": "12-5", "ShopName": "凪晴食堂", "ShopAddr": "東近江市八日市町11-5", "longitude": 136.198502, "latitude": 35.111702}, {"ID": "12-6", "ShopName": "クッチーナ カプリチョーザ", "ShopAddr": "東近江市林田町1264-1", "longitude": 136.233322, "latitude": 35.093433}, {"ID": "12-7", "ShopName": "ひのや", "ShopAddr": "東近江市山上町1266", "longitude": 136.294708, "latitude": 35.076763}, {"ID": "12-8", "ShopName": "吉屋", "ShopAddr": "東近江市下岸本町103", "longitude": 136.225708, "latitude": 35.122322}, {"ID": "12-9", "ShopName": "茶ろん 坪六", "ShopAddr": "東近江市宮荘町141-1", "longitude": 136.192566, "latitude": 35.154552}, {"ID": "12-10", "ShopName": "や台ずし 能登川駅西口町", "ShopAddr": "東近江市垣見町1525", "longitude": 136.165359, "latitude": 35.181652}, {"ID": "12-11", "ShopName": "パンカフェKOKON~江近~", "ShopAddr": "東近江市八日市本町7-8", "longitude": 136.196091, "latitude": 35.113148}, {"ID": "12-12", "ShopName": "とりやきサントリ食堂", "ShopAddr": "東近江市五個荘北町屋町151-1五番街C", "longitude": 136.185165, "latitude": 35.147419}, {"ID": "12-13", "ShopName": "まるい本舗", "ShopAddr": "東近江市垣見町855", "longitude": 136.16687, "latitude": 35.182007}, {"ID": "12-14", "ShopName": "MAZA MAZA", "ShopAddr": "東近江市八日市本町2-4-1", "longitude": 136.195496, "latitude": 35.114071}, {"ID": "12-15", "ShopName": "一休亭 聖", "ShopAddr": "東近江市今町1000-16", "longitude": 136.174896, "latitude": 35.189262}, {"ID": "12-16", "ShopName": "カルビ屋大福八日市店", "ShopAddr": "東近江市東中野303", "longitude": 136.195282, "latitude": 35.105835}, {"ID": "12-17", "ShopName": "京そば処志乃崎八日市店", "ShopAddr": "東近江市緑町9-30 西友八日市店内", "longitude": 136.207718, "latitude": 35.113029}, {"ID": "12-18", "ShopName": "ゆるり処 和み", "ShopAddr": "東近江市東沖野四丁目1番11号", "longitude": 136.215775, "latitude": 35.102604}, {"ID": "12-19", "ShopName": "和食麵処サガミ五個荘店", "ShopAddr": "東近江市五個荘中町43-3", "longitude": 136.197327, "latitude": 35.160522}, {"ID": "12-20", "ShopName": "和食さと 八日市店", "ShopAddr": "東近江市札の辻1-4-16", "longitude": 136.212204, "latitude": 35.105453}, {"ID": "12-21", "ShopName": "松研 五個荘店", "ShopAddr": "東近江市五個荘石塚町124-3", "longitude": 136.180023, "latitude": 35.144901}, {"ID": "12-22", "ShopName": "総本家備長扇屋滋賀八日市店", "ShopAddr": "東近江市八日市東本町17-7", "longitude": 136.209259, "latitude": 35.108196}, {"ID": "12-23", "ShopName": "近江牛焼肉MAWARI 八日市店", "ShopAddr": "東近江市東沖野3丁目1-4", "longitude": 136.214218, "latitude": 35.103249}, {"ID": "12-24", "ShopName": "八日市の杜カフェ", "ShopAddr": "東近江市八日市緑町38-15", "longitude": 136.21225, "latitude": 35.112946}, {"ID": "12-25", "ShopName": "翠翔 八日市店", "ShopAddr": "東近江市八日市本町5-6", "longitude": 136.197098, "latitude": 35.113411}, {"ID": "12-26", "ShopName": "Crepier Cono", "ShopAddr": "東近江市山上町2927-1", "longitude": 136.294708, "latitude": 35.076763}, {"ID": "12-27", "ShopName": "はま寿司 東近江八日市店", "ShopAddr": "東近江市東沖野1-1-4", "longitude": 136.209473, "latitude": 35.106312}, {"ID": "12-28", "ShopName": "海座 八日市店", "ShopAddr": "東近江市八日市野々宮町230-1", "longitude": 136.199402, "latitude": 35.108654}, {"ID": "12-29", "ShopName": "焼鳥 野球小僧", "ShopAddr": "東近江市八日市浜野町2-2", "longitude": 136.19574, "latitude": 35.114758}, {"ID": "12-30", "ShopName": "八日市ロイヤルホテル", "ShopAddr": "東近江市妙法寺町690番地", "longitude": 136.225784, "latitude": 35.099541}, {"ID": "12-31", "ShopName": "魚文", "ShopAddr": "東近江市上二俣町981番地", "longitude": 136.286041, "latitude": 35.066074}, {"ID": "12-32", "ShopName": "来来亭 五個荘店", "ShopAddr": "東近江市五個荘中町129-1", "longitude": 136.19603, "latitude": 35.160942}, {"ID": "12-33", "ShopName": "cafe HAPPY TO DAY", "ShopAddr": "東近江市東中野町5-21 中野ヴィレッジハウス内", "longitude": 136.193863, "latitude": 35.105518}, {"ID": "12-34", "ShopName": "お好み焼はここやねん 八日市店", "ShopAddr": "東近江市八日市東浜町4-1", "longitude": 136.199203, "latitude": 35.115509}, {"ID": "12-35", "ShopName": "TOWN", "ShopAddr": "東近江市八日市本町10-20", "longitude": 136.194412, "latitude": 35.112221}, {"ID": "12-36", "ShopName": "クレフィール湖東 ステーキハウス扇(せん)", "ShopAddr": "東近江市平柳町22-3", "longitude": 136.277344, "latitude": 35.146973}, {"ID": "12-37", "ShopName": "クレフィール湖東 湖東やすらぎ浴 至福の湯内1F御食事処", "ShopAddr": "東近江市平柳町22-3", "longitude": 136.277344, "latitude": 35.146973}, {"ID": "12-38", "ShopName": "クレフィール湖東 GRAND TABLE", "ShopAddr": "東近江市平柳町22-3", "longitude": 136.277344, "latitude": 35.146973}, {"ID": "12-39", "ShopName": "招福楼", "ShopAddr": "東近江市八日市本町8-11", "longitude": 136.195343, "latitude": 35.113392}, {"ID": "12-40", "ShopName": "伝五郎八日市店", "ShopAddr": "東近江市幸町1-175-1", "longitude": 136.203247, "latitude": 35.107147}, {"ID": "12-41", "ShopName": "トマトアンドオニオン五個荘店", "ShopAddr": "東近江市五個荘五位田町33-8", "longitude": 136.194336, "latitude": 35.158321}, {"ID": "12-42", "ShopName": "飲水思源 みのる", "ShopAddr": "東近江市東中野町9-24", "longitude": 136.194809, "latitude": 35.103905}, {"ID": "12-43", "ShopName": "やよい軒 八日市店", "ShopAddr": "東近江市東沖野3-1-3", "longitude": 136.214218, "latitude": 35.103249}, {"ID": "12-44", "ShopName": "ココス八日市店", "ShopAddr": "東近江市青葉町294-1", "longitude": 136.199005, "latitude": 35.106621}, {"ID": "12-45", "ShopName": "アズイン東近江 能登川駅前", "ShopAddr": "東近江市林町20", "longitude": 136.163391, "latitude": 35.180016}, {"ID": "12-46", "ShopName": "御料理 島田屋", "ShopAddr": "東近江市西中野町9-8", "longitude": 136.192764, "latitude": 35.104733}, {"ID": "12-47", "ShopName": "近江牛焼肉専門店 万葉 八日市店", "ShopAddr": "東近江市妙法寺町694-6", "longitude": 136.226562, "latitude": 35.099201}, {"ID": "12-48", "ShopName": "ビジネスグリーンホテル八日市", "ShopAddr": "東近江市八日市野々宮町290-1", "longitude": 136.199402, "latitude": 35.108654}, {"ID": "12-49", "ShopName": "魚や楓江庵", "ShopAddr": "東近江市八日市本町6-9", "longitude": 136.196671, "latitude": 35.113277}, {"ID": "12-50", "ShopName": "御料理処大喜", "ShopAddr": "東近江市八日市東本町9ー1", "longitude": 136.205246, "latitude": 35.108517}, {"ID": "12-51", "ShopName": "La Rondine", "ShopAddr": "東近江市東沖野3-8-62", "longitude": 136.212402, "latitude": 35.10001}, {"ID": "12-52", "ShopName": "近江牛専門店 万葉 太郎坊亭", "ShopAddr": "東近江市小脇町654-1", "longitude": 136.183868, "latitude": 35.115917}, {"ID": "12-53", "ShopName": "ミモザキッチン", "ShopAddr": "東近江市小池町543", "longitude": 136.231277, "latitude": 35.132545}, {"ID": "12-54", "ShopName": "村栄", "ShopAddr": "東近江市中野町648", "longitude": 136.192093, "latitude": 35.104092}, {"ID": "12-55", "ShopName": "納屋孫", "ShopAddr": "東近江市五個荘川並町620", "longitude": 136.175735, "latitude": 35.150089}, {"ID": "12-56", "ShopName": "酒処ほたる", "ShopAddr": "東近江市北花沢町633-3", "longitude": 136.259354, "latitude": 35.12912}, {"ID": "12-57", "ShopName": "御料理 うえ田", "ShopAddr": "東近江市横溝町202-44", "longitude": 136.245834, "latitude": 35.130367}, {"ID": "12-58", "ShopName": "霜錦館", "ShopAddr": "東近江市永源寺相谷町982-1", "longitude": 136.32608, "latitude": 35.067837}, {"ID": "12-59", "ShopName": "いぬと肴", "ShopAddr": "東近江市東沖野5-7-2 大一ビル1F", "longitude": 136.213455, "latitude": 35.097248}, {"ID": "12-60", "ShopName": "東近江 塩元帥", "ShopAddr": "東近江市五個荘北町屋町269-2", "longitude": 136.184448, "latitude": 35.146832}, {"ID": "14-1", "ShopName": "kobachi", "ShopAddr": "蒲生郡日野町松尾2-88-1", "longitude": 136.244141, "latitude": 35.015335}, {"ID": "14-2", "ShopName": "寿司友", "ShopAddr": "蒲生郡日野町中在寺307", "longitude": 136.238312, "latitude": 35.050251}, {"ID": "14-3", "ShopName": "MORINO COFFEE  まちライブラリー@MORITSUNE", "ShopAddr": "蒲生郡日野町松尾5丁目13-2", "longitude": 136.240601, "latitude": 35.020035}, {"ID": "14-4", "ShopName": "うを市", "ShopAddr": "蒲生郡日野町大窪791", "longitude": 136.246185, "latitude": 35.013096}, {"ID": "14-5", "ShopName": "松喜園", "ShopAddr": "蒲生郡日野町内池919", "longitude": 136.219818, "latitude": 35.011604}, {"ID": "14-6", "ShopName": "近江日野まちなか 観光交流拠点施設", "ShopAddr": "蒲生郡日野町大窪642", "longitude": 136.253128, "latitude": 35.012089}, {"ID": "14-7", "ShopName": "日野屋", "ShopAddr": "蒲生郡日野町鎌掛2699", "longitude": 136.258026, "latitude": 34.985725}, {"ID": "14-8", "ShopName": "れすとらん芭蕉", "ShopAddr": "蒲生郡日野町別所967-21", "longitude": 136.209656, "latitude": 35.000629}, {"ID": "14-9", "ShopName": "料亭旅館 寿志屋", "ShopAddr": "蒲生郡日野町大窪531", "longitude": 136.246887, "latitude": 35.013588}, {"ID": "14-10", "ShopName": "うお友", "ShopAddr": "蒲生郡日野町大窪834", "longitude": 136.242477, "latitude": 35.013432}, {"ID": "14-11", "ShopName": "御料理 宴席 竹友亭", "ShopAddr": "蒲生郡日野町西大路2255", "longitude": 136.262711, "latitude": 35.010021}, {"ID": "14-12", "ShopName": "ココス日野店", "ShopAddr": "蒲生郡日野町松尾844-8", "longitude": 136.245148, "latitude": 35.028088}, {"ID": "14-13", "ShopName": "ツバメカフェ", "ShopAddr": "蒲生郡日野町大字松尾988-1", "longitude": 136.238007, "latitude": 35.017647}, {"ID": "14-14", "ShopName": "ビジネスグリーンホテル日野", "ShopAddr": "蒲生郡日野町松尾2-16", "longitude": 136.244583, "latitude": 35.015633}, {"ID": "15-1", "ShopName": "近江牛 岡喜本店", "ShopAddr": "蒲生郡竜王町山之上5294", "longitude": 136.141937, "latitude": 35.046406}, {"ID": "15-2", "ShopName": "魚英", "ShopAddr": "蒲生郡竜王町山之上2347-1", "longitude": 136.135712, "latitude": 35.045025}, {"ID": "15-3", "ShopName": "GOROBEI", "ShopAddr": "蒲生郡竜王町山之上5145-1", "longitude": 136.136505, "latitude": 35.037209}, {"ID": "8-1", "ShopName": "一休", "ShopAddr": "甲賀市甲賀町小佐治3016-3", "longitude": 136.210556, "latitude": 34.935104}, {"ID": "8-2", "ShopName": "近江スエヒロダイニングThe Beef", "ShopAddr": "甲賀市土山町南土山宇尾巻1122-28新名神高速道路土山サービスエリア内", "longitude": 136.291656, "latitude": 34.925201}, {"ID": "8-3", "ShopName": "SORA", "ShopAddr": "甲賀市信楽町中野595-1", "longitude": 136.017273, "latitude": 34.862637}, {"ID": "8-4", "ShopName": "湖南飯店", "ShopAddr": "甲賀市水口町北泉1-78", "longitude": 136.146469, "latitude": 34.984867}, {"ID": "8-5", "ShopName": "備長扇屋 甲賀水口店", "ShopAddr": "甲賀市水口町東名坂283", "longitude": 136.166336, "latitude": 34.977997}, {"ID": "8-6", "ShopName": "魚兵楼", "ShopAddr": "甲賀市水口町本町2-5-17", "longitude": 136.174606, "latitude": 34.968998}, {"ID": "8-7", "ShopName": "かくれ里", "ShopAddr": "甲賀市甲南町野田74-1", "longitude": 136.165543, "latitude": 34.919712}, {"ID": "8-8", "ShopName": "甲賀忍びの宿宮乃温泉", "ShopAddr": "甲賀市甲南町杉谷364-1", "longitude": 136.155685, "latitude": 34.926571}, {"ID": "8-9", "ShopName": "ペコリーノ", "ShopAddr": "甲賀市甲南町野田74-1", "longitude": 136.165543, "latitude": 34.919712}, {"ID": "8-10", "ShopName": "Tea & Sweets Masyumasyu", "ShopAddr": "甲賀市水口町名坂1031-20", "longitude": 136.164963, "latitude": 34.980846}, {"ID": "8-11", "ShopName": "みなくちテクノスファーム", "ShopAddr": "甲賀市水口町水口5940-4", "longitude": 136.192886, "latitude": 34.980461}, {"ID": "8-12", "ShopName": "ホテルレイクヴイラ・レストラン", "ShopAddr": "甲賀市信楽町多羅尾1", "longitude": 136.060928, "latitude": 34.817135}, {"ID": "8-13", "ShopName": "信楽澤善幸せ創造館", "ShopAddr": "甲賀市信楽町勅旨1424-1", "longitude": 136.075104, "latitude": 34.891644}, {"ID": "8-14", "ShopName": "株式会社魚松", "ShopAddr": "甲賀市甲賀町神2376番地", "longitude": 136.244843, "latitude": 34.908066}, {"ID": "8-15", "ShopName": "べじらいす", "ShopAddr": "甲賀市水口町北脇2378-1", "longitude": 136.151428, "latitude": 34.978828}, {"ID": "8-16", "ShopName": "居楽屋新鮮め組", "ShopAddr": "甲賀市水口町北泉1-50-5", "longitude": 136.144653, "latitude": 34.984303}, {"ID": "8-17", "ShopName": "ふじ吉", "ShopAddr": "甲賀市水口町梅ヶ丘1-9", "longitude": 136.168045, "latitude": 34.971375}, {"ID": "8-18", "ShopName": "㈱魚松 信楽店", "ShopAddr": "甲賀市信楽町牧1044", "longitude": 136.086975, "latitude": 34.91124}, {"ID": "8-19", "ShopName": "はま寿司甲賀水口店", "ShopAddr": "甲賀市水口町北脇1838-1", "longitude": 136.151428, "latitude": 34.978828}, {"ID": "8-20", "ShopName": "ひより 水口店", "ShopAddr": "甲賀市水口町水口5555", "longitude": 136.171402, "latitude": 34.964115}, {"ID": "8-21", "ShopName": "COCCALA BAKE&CAFE", "ShopAddr": "甲賀市甲南町野尻431", "longitude": 136.178192, "latitude": 34.91478}, {"ID": "8-22", "ShopName": "森下屋", "ShopAddr": "甲賀市水口町本丸1-6", "longitude": 136.164566, "latitude": 34.972286}, {"ID": "8-23", "ShopName": "お好み焼きはここやねん 水口店", "ShopAddr": "甲賀市水口町綾野3-53", "longitude": 136.168335, "latitude": 34.975586}, {"ID": "8-24", "ShopName": "京そば処志乃崎 水口店", "ShopAddr": "甲賀市水口町水口5555 アヤハプラザ水口内", "longitude": 136.171402, "latitude": 34.964115}, {"ID": "8-25", "ShopName": "大小屋", "ShopAddr": "滋賀県甲賀市信楽町勅旨2349", "longitude": 136.075104, "latitude": 34.891644}, {"ID": "8-26", "ShopName": "Japan Dining emu", "ShopAddr": "甲賀市水口町東林口479-1", "longitude": 136.163345, "latitude": 34.974865}, {"ID": "8-27", "ShopName": "田中酒店", "ShopAddr": "甲賀市甲賀町大原市場467", "longitude": 136.209717, "latitude": 34.903107}, {"ID": "8-28", "ShopName": "グリル山水", "ShopAddr": "甲賀市甲賀町大原市場345番地", "longitude": 136.209625, "latitude": 34.905529}, {"ID": "8-29", "ShopName": "有限会社錦茶屋", "ShopAddr": "甲賀市甲賀町大原中1034", "longitude": 136.232132, "latitude": 34.912212}, {"ID": "8-30", "ShopName": "お膳処 つる家", "ShopAddr": "甲賀市甲南町深川2057-1", "longitude": 136.166046, "latitude": 34.929237}, {"ID": "8-31", "ShopName": "Rider House神戸", "ShopAddr": "甲賀市土山町大河原1075", "longitude": 136.37796, "latitude": 34.995071}, {"ID": "8-32", "ShopName": "魚仙", "ShopAddr": "甲賀市信楽町長野1334-2", "longitude": 136.059952, "latitude": 34.881493}, {"ID": "8-33", "ShopName": "酔虎伝    水口店", "ShopAddr": "甲賀市水口町本綾野566-1    アルプラザ水口2F", "longitude": 136.17012, "latitude": 34.976753}, {"ID": "8-34", "ShopName": "水口センチュリーホテル", "ShopAddr": "甲賀市水口町名坂170-1", "longitude": 136.173141, "latitude": 34.977692}, {"ID": "8-35", "ShopName": "平岡家", "ShopAddr": "甲賀市信楽町長野516-28", "longitude": 136.052765, "latitude": 34.875305}, {"ID": "8-36", "ShopName": "ココス甲南店", "ShopAddr": "甲賀市甲南町竜法師376", "longitude": 136.171753, "latitude": 34.922401}, {"ID": "8-37", "ShopName": "HERO'S☆CAFE", "ShopAddr": "甲賀市水口町梅ヶ丘1-34", "longitude": 136.168045, "latitude": 34.971375}, {"ID": "10-1", "ShopName": "寿司バル たから船 イオンタウン湖南本店", "ShopAddr": "湖南市岩根4580", "longitude": 136.103195, "latitude": 35.009346}, {"ID": "10-2", "ShopName": "おばんざい なかまつ", "ShopAddr": "湖南市水戸町22-3", "longitude": 136.120987, "latitude": 35.008892}, {"ID": "10-3", "ShopName": "やまりゅう", "ShopAddr": "湖南市岩根中央2-20", "longitude": 136.117676, "latitude": 35.001945}, {"ID": "10-4", "ShopName": "湖南市魅力発信拠点施設HAT", "ShopAddr": "湖南市岩根4529-1", "longitude": 136.103195, "latitude": 35.009346}, {"ID": "10-5", "ShopName": "和食さと 三雲店", "ShopAddr": "湖南市三雲133-1", "longitude": 136.115143, "latitude": 34.984249}, {"ID": "10-6", "ShopName": "天然酵母パン メイアンドさつき", "ShopAddr": "湖南市下田2744-21", "longitude": 136.131317, "latitude": 35.019241}, {"ID": "10-7", "ShopName": "サガミ 甲西店", "ShopAddr": "湖南市平松北2-7", "longitude": 136.081512, "latitude": 35.003876}, {"ID": "10-8", "ShopName": "洋風割烹 松井", "ShopAddr": "湖南市石部西1-1-32", "longitude": 136.055252, "latitude": 35.013153}, {"ID": "10-9", "ShopName": "レストラン旬香", "ShopAddr": "湖南市岩根中央1-33", "longitude": 136.118103, "latitude": 35.000648}, {"ID": "10-10", "ShopName": "SUGAR+café", "ShopAddr": "湖南市菩提寺4-4-1", "longitude": 136.078079, "latitude": 35.039375}, {"ID": "10-11", "ShopName": "石部の里 大峯", "ShopAddr": "湖南市石部中央4-7-37", "longitude": 136.056076, "latitude": 35.012402}, {"ID": "10-12", "ShopName": "食事処 良樹", "ShopAddr": "湖南市菩提寺1370", "longitude": 136.078079, "latitude": 35.039375}, {"ID": "10-13", "ShopName": "ちゃんこ鍋栃若", "ShopAddr": "湖南市三雲1365-2", "longitude": 136.105652, "latitude": 34.979546}, {"ID": "10-14", "ShopName": "魚兵", "ShopAddr": "湖南市平松北3-20", "longitude": 136.079483, "latitude": 35.00407}, {"ID": "10-15", "ShopName": "みくりやうどん", "ShopAddr": "湖南市夏見639-1", "longitude": 136.09552, "latitude": 34.998058}, {"ID": "10-16", "ShopName": "やよい軒 湖南店", "ShopAddr": "湖南市岩根4580", "longitude": 136.103195, "latitude": 35.009346}, {"ID": "10-17", "ShopName": "ブロンコビリー 湖南店", "ShopAddr": "湖南市岩根4580イオンタウン湖南", "longitude": 136.103195, "latitude": 35.009346}, {"ID": "10-18", "ShopName": "はなまるうどん オメガ湖南店", "ShopAddr": "湖南市吉永344", "longitude": 136.101883, "latitude": 34.984936}, {"ID": "10-19", "ShopName": "ココス甲西店", "ShopAddr": "湖南市中央1-38", "longitude": 136.085388, "latitude": 35.002663}, {"ID": "10-20", "ShopName": "天下一品 甲西店", "ShopAddr": "湖南市岩根中央2-19", "longitude": 136.117325, "latitude": 35.000633}, {"ID": "10-21", "ShopName": "赤から滋賀湖南店", "ShopAddr": "湖南市平松北3-17", "longitude": 136.079483, "latitude": 35.00407}, {"ID": "10-22", "ShopName": "甲賀カントリー俱楽部 レストラン", "ShopAddr": "湖南市三雲3354", "longitude": 136.109222, "latitude": 34.961693}, {"ID": "10-23", "ShopName": "焼肉三旨 慶州 石部店", "ShopAddr": "湖南市石部北4-1-14", "longitude": 136.046997, "latitude": 35.023148}, {"ID": "10-24", "ShopName": "らーめん藤  三雲店", "ShopAddr": "湖南市三雲202-1", "longitude": 136.110245, "latitude": 34.987484}, {"ID": "10-25", "ShopName": "グラシアス", "ShopAddr": "湖南市中央2-12 弥永ビル101号", "longitude": 136.081024, "latitude": 35.005928}, {"ID": "10-26", "ShopName": "湖國十二坊の森 お食事処味廣", "ShopAddr": "湖南市岩根678-28", "longitude": 136.117111, "latitude": 35.019775}, {"ID": "5-1", "ShopName": "おばんざい千代菊", "ShopAddr": "草津市野村2-22-13サントリーマンション102", "longitude": 135.951157, "latitude": 35.026447}, {"ID": "5-2", "ShopName": "オールデイダイニング リバティー", "ShopAddr": "草津市西大路町1-27ホテルボストンプラザ草津1F", "longitude": 135.960587, "latitude": 35.022236}, {"ID": "5-3", "ShopName": "味彩 魚㐂", "ShopAddr": "草津市野路7-1-17", "longitude": 135.952057, "latitude": 35.000446}, {"ID": "5-4", "ShopName": "ロンロヌマン", "ShopAddr": "草津市渋川1-7-6 LAスクエアWEST2F", "longitude": 135.965637, "latitude": 35.023796}, {"ID": "5-5", "ShopName": "カレーハウスCoCo壱番屋 草津野路店", "ShopAddr": "草津市野路5-2-43", "longitude": 135.951553, "latitude": 35.002335}, {"ID": "5-6", "ShopName": "Lo Splendore ロ スプレンドーレ", "ShopAddr": "草津市追分南4-5-8", "longitude": 135.963501, "latitude": 34.997463}, {"ID": "5-7", "ShopName": "トラットリアサルティンボッカクサツココリバ店", "ShopAddr": "草津市大路1-3-18-1", "longitude": 135.960129, "latitude": 35.019764}, {"ID": "5-8", "ShopName": "トラットリアサルティンボッカ南草津店", "ShopAddr": "草津市野路1-12-28", "longitude": 135.949738, "latitude": 35.002258}, {"ID": "5-9", "ShopName": "カジュアルダイニングレストラン リヴィエール", "ShopAddr": "草津市西大路町4-32", "longitude": 135.959579, "latitude": 35.023857}, {"ID": "5-10", "ShopName": "日本料理 あお花", "ShopAddr": "草津市西大路町4-32", "longitude": 135.959579, "latitude": 35.023857}, {"ID": "5-11", "ShopName": "台湾料理 味鮮", "ShopAddr": "草津市野路町469-6", "longitude": 135.939621, "latitude": 35.006924}, {"ID": "5-12", "ShopName": "やきとり 大吉 矢橋店", "ShopAddr": "草津市矢橋町18-10", "longitude": 135.936996, "latitude": 35.008125}, {"ID": "5-13", "ShopName": "ちゃんこ大岳", "ShopAddr": "草津市北山田町735-5", "longitude": 135.926224, "latitude": 35.030315}, {"ID": "5-14", "ShopName": "大喜", "ShopAddr": "草津市上笠4-1-16", "longitude": 135.943848, "latitude": 35.032341}, {"ID": "5-15", "ShopName": "ランプ精肉店", "ShopAddr": "草津市大路1-11-16", "longitude": 135.963211, "latitude": 35.021584}, {"ID": "5-16", "ShopName": "四季旬彩 いおり", "ShopAddr": "草津市野路1-8-12 M.plaza 1F", "longitude": 135.949448, "latitude": 35.003761}, {"ID": "5-17", "ShopName": "串八 草津国道店", "ShopAddr": "草津市大路3-2-34", "longitude": 135.968918, "latitude": 35.017815}, {"ID": "5-18", "ShopName": "福ふく珈琲", "ShopAddr": "草津市笠山5-7-16", "longitude": 135.949173, "latitude": 34.98185}, {"ID": "5-19", "ShopName": "KOKINTEI", "ShopAddr": "草津市大路1-4-14", "longitude": 135.961121, "latitude": 35.019238}, {"ID": "5-20", "ShopName": "イナホ食堂 東口店", "ShopAddr": "草津市大路1-1-1エルティ932地下1F", "longitude": 135.961273, "latitude": 35.021236}, {"ID": "5-21", "ShopName": "梅の花 草津店", "ShopAddr": "草津市西大路町4-32クサツエストピアプラザ24F", "longitude": 135.959579, "latitude": 35.023857}, {"ID": "5-22", "ShopName": "串八 草津駅前店", "ShopAddr": "草津市西大路町1 KENT PLAZA2F", "longitude": 135.960587, "latitude": 35.022236}, {"ID": "5-23", "ShopName": "ロッテリア草津エルティ店", "ShopAddr": "草津市大路一丁目1-1 エルティ1F", "longitude": 135.961273, "latitude": 35.021236}, {"ID": "5-24", "ShopName": "京そば処 志乃崎 エイスクエア店", "ShopAddr": "草津市西渋川1丁目18番39号", "longitude": 135.960419, "latitude": 35.027882}, {"ID": "5-25", "ShopName": "nalu cafe CAFE&LIVE", "ShopAddr": "草津市西渋川1-1-18イ-カムビル1F", "longitude": 135.96106, "latitude": 35.023792}, {"ID": "5-26", "ShopName": "ちゃんこ茶屋三杉里", "ShopAddr": "草津市南笠東1-5-24", "longitude": 135.944229, "latitude": 34.994076}, {"ID": "5-27", "ShopName": "お好み焼はここやねん 草津店", "ShopAddr": "草津市東草津1-1-55", "longitude": 135.969528, "latitude": 35.015614}, {"ID": "5-28", "ShopName": "馳走 とし藤", "ShopAddr": "草津市草津2丁目7-30", "longitude": 135.960693, "latitude": 35.01701}, {"ID": "5-29", "ShopName": "や台ずし 草津駅西口町", "ShopAddr": "草津市西大路町3-8ジュモネティ", "longitude": 135.959946, "latitude": 35.02319}, {"ID": "5-30", "ShopName": "アーバンホテル南草津", "ShopAddr": "草津市南草津1丁目1番地5", "longitude": 135.946198, "latitude": 35.003555}, {"ID": "5-31", "ShopName": "アーバンホテル草津", "ShopAddr": "草津市大路1丁目4-31", "longitude": 135.961121, "latitude": 35.019238}, {"ID": "5-32", "ShopName": "焼肉処 楽々亭", "ShopAddr": "草津市大路1丁目4-12 ダイマルソイビル1F", "longitude": 135.961121, "latitude": 35.019238}, {"ID": "5-33", "ShopName": "近江牛焼肉MAWARI草津店", "ShopAddr": "草津市大路1-7-1", "longitude": 135.961761, "latitude": 35.020157}, {"ID": "5-34", "ShopName": "ミライザカ 草津東口店", "ShopAddr": "草津市大路1-8-1 南洋軒ビルB1F", "longitude": 135.962006, "latitude": 35.020775}, {"ID": "5-35", "ShopName": "あじわいや げん", "ShopAddr": "草津市野路二丁目23-7", "longitude": 135.947433, "latitude": 34.999851}, {"ID": "5-36", "ShopName": "餃子の王将 矢橋店", "ShopAddr": "草津市矢橋町21-4", "longitude": 135.936996, "latitude": 35.008125}, {"ID": "5-37", "ShopName": "農場レストラン モクモク風の葡萄", "ShopAddr": "草津市渋川一丁目1-50 近鉄草津内5F", "longitude": 135.962952, "latitude": 35.023121}, {"ID": "5-38", "ShopName": "M's  be", "ShopAddr": "草津市大路1-5-11 Kビル2階", "longitude": 135.961151, "latitude": 35.01984}, {"ID": "5-39", "ShopName": "たんとと和くら 草津エイスクエア店", "ShopAddr": "草津市西渋川1-23", "longitude": 135.960098, "latitude": 35.024189}, {"ID": "5-40", "ShopName": "イナホ食堂", "ShopAddr": "草津市西渋川1-1-18イーカムビル2F", "longitude": 135.96106, "latitude": 35.023792}, {"ID": "5-41", "ShopName": "ココヤシ カフェ", "ShopAddr": "草津市青地町656", "longitude": 135.970123, "latitude": 35.008984}, {"ID": "5-42", "ShopName": "囲炉鳥鳥 草津店", "ShopAddr": "草津市若竹町9-40", "longitude": 135.968414, "latitude": 35.021046}, {"ID": "5-43", "ShopName": "哲(喫茶)", "ShopAddr": "草津市草津三丁目13-75", "longitude": 135.958511, "latitude": 35.013271}, {"ID": "5-44", "ShopName": "バンバンビガロ", "ShopAddr": "草津市大路1-7-1-113", "longitude": 135.961761, "latitude": 35.020157}, {"ID": "5-45", "ShopName": "割烹 平", "ShopAddr": "草津市野路2-5-12", "longitude": 135.947632, "latitude": 35.000381}, {"ID": "5-46", "ShopName": "ひより 南草津店", "ShopAddr": "草津市野路1丁目15-5 フェリエ3F", "longitude": 135.947403, "latitude": 35.003052}, {"ID": "5-47", "ShopName": "ｾｶﾝﾄﾞﾊｳｽｹｰｷﾜｰｸｽ ｴｲｽｸｴｱ店", "ShopAddr": "草津市西渋川1丁目23-3 SARA東館1階", "longitude": 135.960098, "latitude": 35.024189}, {"ID": "5-48", "ShopName": "Sunday's Bake River Garden", "ShopAddr": "草津市大路1-3-18-3号 C棟", "longitude": 135.960129, "latitude": 35.019764}, {"ID": "5-49", "ShopName": "ミライザカ南草津駅前店", "ShopAddr": "草津市野路1-14-47 南草津NTビル2F", "longitude": 135.948364, "latitude": 35.00354}, {"ID": "5-50", "ShopName": "きんのぶた草津追分", "ShopAddr": "草津市追分南6丁目1-10", "longitude": 135.964691, "latitude": 34.995239}, {"ID": "5-51", "ShopName": "はま寿司 草津東矢倉店", "ShopAddr": "草津市東矢倉1-4-6", "longitude": 135.957947, "latitude": 35.008801}, {"ID": "5-52", "ShopName": "旬菜しゃぶ重 草津店", "ShopAddr": "草津市新浜町300番 イオンモール草津1F", "longitude": 135.912125, "latitude": 34.99818}, {"ID": "5-53", "ShopName": "酒菜くどう", "ShopAddr": "草津市野路1-14-38 サンマール南草津207号", "longitude": 135.948364, "latitude": 35.00354}, {"ID": "5-54", "ShopName": "COWSCROWN", "ShopAddr": "草津市西大路町2-2 西田ビル1F", "longitude": 135.959915, "latitude": 35.022434}, {"ID": "5-55", "ShopName": "函館市場 イオンモール草津店", "ShopAddr": "草津市新浜町300番地イオンモール草津1F", "longitude": 135.912125, "latitude": 34.99818}, {"ID": "5-56", "ShopName": "寿司・ふぐ 紫雲英", "ShopAddr": "草津市大路1-4-12大丸ソイビル1F", "longitude": 135.961121, "latitude": 35.019238}, {"ID": "5-57", "ShopName": "とんかつ和幸 イオンモール草津店", "ShopAddr": "草津市新浜町300番地 イオンモール草津1F", "longitude": 135.912125, "latitude": 34.99818}, {"ID": "5-58", "ShopName": "えびのや イオンモール草津店", "ShopAddr": "草津市新浜町300番地 イオンモール草津1F", "longitude": 135.912125, "latitude": 34.99818}, {"ID": "5-59", "ShopName": "越後秘蔵麺 無尽蔵 しんはま家", "ShopAddr": "草津市新浜町300番地 イオンモール草津1F", "longitude": 135.912125, "latitude": 34.99818}, {"ID": "5-60", "ShopName": "京都・嵐山 清修庵 イオンモール草津店", "ShopAddr": "草津市新浜町300番地 イオンモール草津1F", "longitude": 135.912125, "latitude": 34.99818}, {"ID": "5-61", "ShopName": "ラ・オハナ イオンモール草津店", "ShopAddr": "草津市新浜町300番地イオンモール草津1F", "longitude": 135.912125, "latitude": 34.99818}, {"ID": "5-62", "ShopName": "はま寿司 草津新浜店", "ShopAddr": "草津市新浜町419-1", "longitude": 135.919876, "latitude": 34.997116}, {"ID": "5-63", "ShopName": "レストラン ミーアカーサ", "ShopAddr": "草津市野路4-3-2", "longitude": 135.947083, "latitude": 34.997383}, {"ID": "5-64", "ShopName": "リストランテ ヴェルサーレ", "ShopAddr": "草津市追分南5-12-15", "longitude": 135.966095, "latitude": 34.991108}, {"ID": "5-65", "ShopName": "串家物語 イオンモール草津店", "ShopAddr": "草津市新浜町300番地イオンモール草津1F", "longitude": 135.912125, "latitude": 34.99818}, {"ID": "5-66", "ShopName": "ワンカルビ草津", "ShopAddr": "草津市草津町1955-1", "longitude": 135.947586, "latitude": 35.018028}, {"ID": "5-67", "ShopName": "ダイニング  あかねいろ", "ShopAddr": "草津市若竹町9-40 木村テナント1FA号", "longitude": 135.968414, "latitude": 35.021046}, {"ID": "5-68", "ShopName": "ラーメン東大 草津店", "ShopAddr": "草津市新浜町300番地 イオンモール草津 3Fフードコート", "longitude": 135.912125, "latitude": 34.99818}, {"ID": "5-69", "ShopName": "天下一品 イオンモール草津店", "ShopAddr": "草津市新浜町300番地 イオンモール草津 3Fフードコート", "longitude": 135.912125, "latitude": 34.99818}, {"ID": "5-70", "ShopName": "パルメナーラ イオンモール草津店", "ShopAddr": "草津市新浜町300番地 イオンモール草津 3Fフードコート", "longitude": 135.912125, "latitude": 34.99818}, {"ID": "5-71", "ShopName": "炭焼ビーフハンバーグステーキ くに イオンモール草津店", "ShopAddr": "草津市新浜町300番地 イオンモール草津 3Fフードコート", "longitude": 135.912125, "latitude": 34.99818}, {"ID": "5-72", "ShopName": "デザート王国 イオンモール草津", "ShopAddr": "草津市新浜町300番地 イオンモール草津 3Fフードコート", "longitude": 135.912125, "latitude": 34.99818}, {"ID": "5-73", "ShopName": "丸亀製麺 イオンモール草津", "ShopAddr": "草津市新浜町300番地 イオンモール草津 3Fフードコート", "longitude": 135.912125, "latitude": 34.99818}, {"ID": "5-74", "ShopName": "ミスタードーナツ イオンモール草津ショップ", "ShopAddr": "草津市新浜町300番地 イオンモール草津 3Fフードコート", "longitude": 135.912125, "latitude": 34.99818}, {"ID": "5-75", "ShopName": "スターバックスコーヒー イオンモール草津店", "ShopAddr": "草津市新浜町300番地イオンモール草津1F", "longitude": 135.912125, "latitude": 34.99818}, {"ID": "5-76", "ShopName": "デンバープレミアム イオンモール草津店", "ShopAddr": "草津市新浜町300番地 イオンモール草津1F", "longitude": 135.912125, "latitude": 34.99818}, {"ID": "5-77", "ShopName": "鎌倉パスタ イオンモール草津店", "ShopAddr": "草津市新浜町300番地 イオンモール草津1F", "longitude": 135.912125, "latitude": 34.99818}, {"ID": "5-78", "ShopName": "五穀イオンモール草津店", "ShopAddr": "草津市新浜町300番地 イオンモール草津1F", "longitude": 135.912125, "latitude": 34.99818}, {"ID": "5-79", "ShopName": "にぎり長次郎 草津店", "ShopAddr": "草津市大路3-2-29", "longitude": 135.968918, "latitude": 35.017815}, {"ID": "5-80", "ShopName": "老舗・寿司清", "ShopAddr": "草津市草津2-10-24", "longitude": 135.95993, "latitude": 35.016464}, {"ID": "5-81", "ShopName": "サガミ草津店", "ShopAddr": "草津市木川町347-1", "longitude": 135.945969, "latitude": 35.020271}, {"ID": "5-82", "ShopName": "やよい軒 草津駒井沢店", "ShopAddr": "草津市駒井沢町深田38", "longitude": 135.9599, "latitude": 35.041668}, {"ID": "5-83", "ShopName": "草津塩元帥", "ShopAddr": "草津市矢倉2-5-53", "longitude": 135.949829, "latitude": 35.005943}, {"ID": "5-84", "ShopName": "ステーキハウスブロンコビリー草津店", "ShopAddr": "草津市木川町330‐1", "longitude": 135.943817, "latitude": 35.01989}, {"ID": "5-85", "ShopName": "和風れすとらんベアー", "ShopAddr": "草津市野路町467-20", "longitude": 135.939621, "latitude": 35.006924}, {"ID": "5-86", "ShopName": "SNUG", "ShopAddr": "草津市渋川1-7-6-2 LAスクエアウエスト3号館2F", "longitude": 135.965637, "latitude": 35.023796}, {"ID": "5-87", "ShopName": "焼肉三旨 慶州 南草津店", "ShopAddr": "草津市追分南6-21-4", "longitude": 135.96492, "latitude": 34.992271}, {"ID": "5-88", "ShopName": "かつくら 近鉄百貨店草津店", "ShopAddr": "草津市渋川1-1-50", "longitude": 135.962952, "latitude": 35.023121}, {"ID": "5-89", "ShopName": "四六時中 エイスクエア草津店", "ShopAddr": "草津市西渋川1-23-1エイスクエアセンターフードヴィレッジ1F", "longitude": 135.960098, "latitude": 35.024189}, {"ID": "6-1", "ShopName": "和食料理 旬の味 和", "ShopAddr": "守山市木浜町480(1F)", "longitude": 135.961548, "latitude": 35.09679}, {"ID": "6-2", "ShopName": "珈琲館もりやま", "ShopAddr": "守山市吉身1-11-46", "longitude": 135.999283, "latitude": 35.056568}, {"ID": "6-3", "ShopName": "Turu no Omotenashi", "ShopAddr": "守山市守山1-5-10-105", "longitude": 135.991776, "latitude": 35.054096}, {"ID": "6-4", "ShopName": "Hana Cafe(ハナカフェ)", "ShopAddr": "守山市三宅町125 守山市民ホール内", "longitude": 135.977814, "latitude": 35.062504}, {"ID": "6-5", "ShopName": "カレーハウスCoCo壱番屋 守山播磨田店", "ShopAddr": "守山市播磨田町315-5", "longitude": 135.994446, "latitude": 35.068722}, {"ID": "6-6", "ShopName": "松研 守山店", "ShopAddr": "守山市金森町630", "longitude": 135.983047, "latitude": 35.057583}, {"ID": "6-7", "ShopName": "一般財団法人守山野洲市民交流プラザ Riseville都賀山", "ShopAddr": "守山市浮気町300-24", "longitude": 135.997681, "latitude": 35.050266}, {"ID": "6-8", "ShopName": "オウミデゴハン YUMMY TANK", "ShopAddr": "守山市水保町1263-10", "longitude": 135.952515, "latitude": 35.111839}, {"ID": "6-9", "ShopName": "魚和", "ShopAddr": "守山市守山1-14-11", "longitude": 135.995087, "latitude": 35.054501}, {"ID": "6-10", "ShopName": "チカ守山 チカカフェ", "ShopAddr": "守山市梅田町2-1-1", "longitude": 135.995346, "latitude": 35.051163}, {"ID": "6-11", "ShopName": "美酒佳肴 来", "ShopAddr": "守山市守山6-7-25-3", "longitude": 135.995407, "latitude": 35.062183}, {"ID": "6-12", "ShopName": "良菜民酒 花螢", "ShopAddr": "守山市小島町1665-3", "longitude": 135.995758, "latitude": 35.073715}, {"ID": "6-13", "ShopName": "ORANGE BALCONY オレンジバルコニー", "ShopAddr": "守山市今浜2620-5ピエリ守山2F2241区画", "longitude": 135.958115, "latitude": 35.115341}, {"ID": "6-14", "ShopName": "かつ麦ピエリ守山店", "ShopAddr": "守山市今浜町2620-5 ピエリ守山2F", "longitude": 135.945679, "latitude": 35.122837}, {"ID": "6-15", "ShopName": "とろ麦ピエリ守山店", "ShopAddr": "守山市今浜町2620-5 ピエリ守山2F", "longitude": 135.945679, "latitude": 35.122837}, {"ID": "6-16", "ShopName": "株式会社北陸", "ShopAddr": "守山市守山6-8-6", "longitude": 135.99585, "latitude": 35.062817}, {"ID": "6-17", "ShopName": "パインツリーたまがわ", "ShopAddr": "守山市石田町724-1", "longitude": 135.974243, "latitude": 35.074841}, {"ID": "6-18", "ShopName": "クールアクール", "ShopAddr": "守山市木浜町3600-195", "longitude": 135.941666, "latitude": 35.105347}, {"ID": "6-19", "ShopName": "中国料理ポピー", "ShopAddr": "守山市浮気町300-15 グランドメゾン守山3-116", "longitude": 135.997681, "latitude": 35.050266}, {"ID": "6-20", "ShopName": "大衆 りょう亭", "ShopAddr": "守山市梅田町2-1 セルバ守山116", "longitude": 135.995346, "latitude": 35.051163}, {"ID": "6-21", "ShopName": "平兵衛庵", "ShopAddr": "守山市守山1-12-25", "longitude": 135.994324, "latitude": 35.055378}, {"ID": "6-22", "ShopName": "守山湯元水春ピエリ守山 レストランGon's", "ShopAddr": "守山市今浜町2620-5ピエリ守山内", "longitude": 135.945679, "latitude": 35.122837}, {"ID": "6-23", "ShopName": "守山カフェ", "ShopAddr": "守山市吉身3-19-15", "longitude": 135.998779, "latitude": 35.059235}, {"ID": "6-24", "ShopName": "雫家", "ShopAddr": "守山市勝部4丁目3-11-105", "longitude": 135.994019, "latitude": 35.043983}, {"ID": "6-25", "ShopName": "凜屋珈琲舎 守山店", "ShopAddr": "守山市水保町1276-1", "longitude": 135.950653, "latitude": 35.113239}, {"ID": "6-26", "ShopName": "和食麺処 サガミ滋賀守山店", "ShopAddr": "守山市下之郷1-1-18", "longitude": 135.996613, "latitude": 35.063557}, {"ID": "6-27", "ShopName": "料亭 魚末", "ShopAddr": "守山市守山一丁目11番14号", "longitude": 135.993179, "latitude": 35.05431}, {"ID": "6-28", "ShopName": "山さんラーメン", "ShopAddr": "守山市古高町622‐4", "longitude": 135.976822, "latitude": 35.053249}, {"ID": "6-29", "ShopName": "伝五郎滋賀守山店", "ShopAddr": "守山市吉身4-1-19", "longitude": 136.0, "latitude": 35.058102}, {"ID": "6-30", "ShopName": "滋賀県立総合病院内1階カフェコア", "ShopAddr": "守山市守山市守山5-4-30 滋賀県立総合病院内1F", "longitude": 135.992477, "latitude": 35.054306}, {"ID": "6-31", "ShopName": "ジャック イン ザ ドーナツ ピエリ守山店", "ShopAddr": "守山市今浜町2620-5 ピエリ守山1F", "longitude": 135.945679, "latitude": 35.122837}, {"ID": "6-32", "ShopName": "風恋人 (ふれんど)", "ShopAddr": "守山市守山6-7-25-2", "longitude": 135.995407, "latitude": 35.062183}, {"ID": "6-33", "ShopName": "にぎり長次郎 守山店", "ShopAddr": "守山市吉身3-16-32", "longitude": 135.997559, "latitude": 35.061699}, {"ID": "6-34", "ShopName": "cittacafe", "ShopAddr": "守山市勝部1-13-1 あまが池プラザ1F", "longitude": 135.990814, "latitude": 35.05312}, {"ID": "6-35", "ShopName": "近江野菜 鉄板焼き わえん", "ShopAddr": "守山市播磨田町3127  田中ビル203", "longitude": 135.989166, "latitude": 35.072407}, {"ID": "6-36", "ShopName": "門前茶屋かたたや", "ShopAddr": "守山市守山2-2-55", "longitude": 135.990768, "latitude": 35.055786}, {"ID": "6-37", "ShopName": "琵琶湖マリオットホテル12階レストラン", "ShopAddr": "守山市今浜町十軒家2876", "longitude": 135.958115, "latitude": 35.115341}, {"ID": "6-38", "ShopName": "琵琶湖マリオットホテル1階ラウンジ", "ShopAddr": "守山市今浜町十軒家2876", "longitude": 135.958115, "latitude": 35.115341}, {"ID": "6-39", "ShopName": "おかだ食堂", "ShopAddr": "守山市守山6-6-14", "longitude": 135.995163, "latitude": 35.061871}, {"ID": "7-1", "ShopName": "カレーハウスCoCo壱番屋 栗東インター店", "ShopAddr": "栗東市出庭536", "longitude": 136.005676, "latitude": 35.035385}, {"ID": "7-2", "ShopName": "カフェ アプリ", "ShopAddr": "栗東市綣2-1-28", "longitude": 135.98262, "latitude": 35.035645}, {"ID": "7-3", "ShopName": "Orpo", "ShopAddr": "栗東市下鈎1147-6", "longitude": 135.980972, "latitude": 35.032597}, {"ID": "7-4", "ShopName": "和食さと北栗東店", "ShopAddr": "栗東市辻482-4", "longitude": 136.016266, "latitude": 35.040573}, {"ID": "7-5", "ShopName": "もつ鍋どばい", "ShopAddr": "栗東市御園973-3", "longitude": 136.022476, "latitude": 34.996143}, {"ID": "7-6", "ShopName": "アートリッツホテル", "ShopAddr": "栗東市綣1丁目11-1", "longitude": 135.98381, "latitude": 35.03783}, {"ID": "7-7", "ShopName": "八剣伝栗東駅前店", "ShopAddr": "栗東市綣2-2-34 1F", "longitude": 135.982788, "latitude": 35.037113}, {"ID": "7-8", "ShopName": "El CaminoReal", "ShopAddr": "栗東市林503-1", "longitude": 136.024368, "latitude": 35.029987}, {"ID": "7-9", "ShopName": "海座 栗東大宝西店", "ShopAddr": "栗東市北中小路190-5", "longitude": 135.970383, "latitude": 35.043266}, {"ID": "7-10", "ShopName": "和食さと霊仙寺店", "ShopAddr": "栗東市霊仙寺3-4-24", "longitude": 135.967697, "latitude": 35.039345}, {"ID": "7-11", "ShopName": "ココス栗東店", "ShopAddr": "栗東市小柿4-5-15", "longitude": 135.975342, "latitude": 35.0219}, {"ID": "7-12", "ShopName": "如意の里 ごきげんさん", "ShopAddr": "栗東市井上281-4", "longitude": 136.035324, "latitude": 34.982067}, {"ID": "7-13", "ShopName": "カラオケカフェGOKIGEN", "ShopAddr": "栗東市目川1101", "longitude": 135.976974, "latitude": 35.01989}, {"ID": "9-1", "ShopName": "Wシークレット", "ShopAddr": "野洲市北野1-9-18チアーハウス3F-2", "longitude": 136.022476, "latitude": 35.069233}, {"ID": "9-2", "ShopName": "天ぷら・和食 馳走", "ShopAddr": "野洲市北野1-10-3メイリツビル1F", "longitude": 136.022888, "latitude": 35.069248}, {"ID": "9-3", "ShopName": "旬鮮 味処 かつら", "ShopAddr": "野洲市北野1-21-45", "longitude": 136.024292, "latitude": 35.0714}, {"ID": "9-4", "ShopName": "地酒・一品料理 せかんどはうす", "ShopAddr": "野洲市北野1-9-9", "longitude": 136.022476, "latitude": 35.069233}, {"ID": "9-5", "ShopName": "居酒屋まいど", "ShopAddr": "野洲市北野1-1-18 アルタンスビル1B", "longitude": 136.021271, "latitude": 35.068291}, {"ID": "9-6", "ShopName": "ラウンジ杏里", "ShopAddr": "野洲市北野1-9-18 チアーハウス2F", "longitude": 136.022476, "latitude": 35.069233}, {"ID": "9-7", "ShopName": "なぶらや 野州駅前店", "ShopAddr": "野州市小篠原2213-3", "longitude": 139.990112, "latitude": 36.338661}, {"ID": "9-8", "ShopName": "やよい軒 野洲店", "ShopAddr": "野洲市小篠原字妻戸837-1", "longitude": 136.035324, "latitude": 35.067711}, {"ID": "9-9", "ShopName": "ココス野洲店", "ShopAddr": "野洲市小篠原389-1", "longitude": 136.035767, "latitude": 35.068615}, {"ID": "9-10", "ShopName": "近江富士花緑公園ふるさと館", "ShopAddr": "野洲市三上519", "longitude": 136.031128, "latitude": 35.049728}, {"ID": "9-11", "ShopName": "はま寿司滋賀守山店", "ShopAddr": "野洲市野洲字八反田1468-2", "longitude": 136.01619, "latitude": 35.059856}, {"ID": "9-12", "ShopName": "近江野菜串焼き鉄板わえん", "ShopAddr": "野洲市北野1-12-31ドリームビル1F", "longitude": 136.023712, "latitude": 35.070061}]